,Kateqoriya,Mərtəbə,Sahə,Otaq sayı,Çıxarış,price,price-cur,locations,latitude,city,longitude,id,date,Təmir,İpoteka
0,Yeni tikili,2 / 17,62 m²,2,,75000,AZN,"Həzi Aslanov m.,Xətai r.,Həzi Aslanov q.",40.4053327515815,Bakı,49.81380344106,3000000,28 Sentyabr 2022 ,,
1,Yeni tikili,8 / 17,73 m²,2,,120000,AZN,"Zərifə Əliyeva adına park ,Binəqədi r.,9-cu mikrorayon q.",40.4228697516585,Bakı,49.81694719685061,3000004,18 Oktyabr 2022 ,,
2,Yeni tikili,11 / 14,75 m²,2,yoxdur,130000,AZN,"Təhsil Nazirliyi ,Nərimanov r.",40.39816149998397,Bakı,49.84086155891422,3000005,01 Oktyabr 2022 ,,
3,Yeni tikili,4 / 4,78 m²,3,,64000,AZN,Xırdalan,40.45511190000001,Xırdalan,49.74459389999993,3000010,18 Oktyabr 2022 ,,
4,Yeni tikili,10 / 16,90 m²,2,yoxdur,130000,AZN,Nərimanov r.,40.39816149998397,Bakı,49.84086155891422,3000011,01 Oktyabr 2022 ,,
5,Yeni tikili,8 / 16,135 m²,3,,245000,AZN,"Binəqədi r.,8-ci mikrorayon q.",40.41890356576523,Bakı,49.85291004180908,3000014,18 Oktyabr 2022 ,,
6,Yeni tikili,18 / 20,59 m²,2,var,125000,AZN,"Yasamal bazarı ,İnşaatçılar m.,Yasamal r.,Yasamal q.",40.3839039,Bakı,49.79972640000005,3000027,18 Oktyabr 2022 ,,
7,Yeni tikili,4 / 9,57 m²,2,,77000,AZN,Xırdalan,40.45511190000001,Xırdalan,49.74459389999993,3000030,18 Oktyabr 2022 ,,
8,Köhnə tikili,3 / 5,60 m²,2,,85000,AZN,"Nəsimi m.,Binəqədi r.,6-cı mikrorayon q.",40.42595738265467,Bakı,49.82836562716016,3000032,18 Oktyabr 2022 ,,
9,Yeni tikili,14 / 17,98 m²,2,,152000,AZN,"Zərifə Əliyeva adına park ,Binəqədi r.,9-cu mikrorayon q.",40.42285341636961,Bakı,49.81703302753908,3000034,19 Noyabr 2022 ,,
10,Yeni tikili,5 / 16,117 m²,2,var,173000,AZN,"Şərq bazarı ,Nərimanov r.",40.40165844427115,Bakı,49.86887991428379,3000047,18 Oktyabr 2022 ,,
11,Yeni tikili,8 / 16,68 m²,2,,78000,AZN,Xırdalan,40.45245455420378,Xırdalan,49.74205131907212,3000048,18 Noyabr 2022 ,,
12,Yeni tikili,5 / 16,120 m²,3,yoxdur,240000,AZN,"Şərq bazarı ,Nərimanov r.",40.38645125868876,Bakı,49.85338341671899,3000060,30 Noyabr 2022 ,,
13,Köhnə tikili,1 / 5,70 m²,3,,150000,AZN,"Ayna Sultanova heykəli ,Binəqədi r.,8-ci mikrorayon q.",40.42527440160644,Bakı,49.85134363174438,3000067,18 Noyabr 2022 ,,
14,Yeni tikili,3 / 12,55 m²,2,,55000,AZN,Xırdalan,40.4594222097755,Xırdalan,49.74030236557609,3000068,18 Oktyabr 2022 ,,
15,Yeni tikili,2 / 10,180 m²,4,,275000,AZN,"M.Hüseynzadə parkı ,Sevil Qazıyeva parkı ,İzmir parkı ,Nizami m.,Yasamal r.",40.39045008382347,Bakı,49.830508675731,3000076,18 Oktyabr 2022 ,,
16,Yeni tikili,1 / 6,73 m²,3,var,82000,AZN,"Abşeron r.,Masazır q.",40.49219701939483,Bakı,49.75321769714355,3000084,18 Oktyabr 2022 ,,
17,Köhnə tikili,2 / 6,54 m²,2,var,110000,AZN,Xətai r.,40.38727822105774,Bakı,49.88063813930331,3000088,18 Oktyabr 2022 ,,
18,Köhnə tikili,5 / 5,35 m²,1,,62000,AZN,"Xətai r.,Həzi Aslanov q.",40.3807186,Bakı,49.92525120000005,3000089,18 Oktyabr 2022 ,,
19,Yeni tikili,16 / 16,65 m²,3,,100000,AZN,"Binəqədi r.,Biləcəri q.",40.42385238819654,Bakı,49.80408506395202,3000091,18 Oktyabr 2022 ,,
20,Köhnə tikili,3 / 5,45 m²,2,,50000,AZN,Xırdalan,40.45893241577285,Xırdalan,49.74553803757316,3000094,28 Noyabr 2022 ,,
21,Yeni tikili,11 / 17,100 m²,3,var,195000,AZN,"Yasamal bazarı ,İnşaatçılar m.,Yasamal r.",40.39045008382347,Bakı,49.830508675731,3000096,18 Oktyabr 2022 ,,
22,Köhnə tikili,4 / 5,75 m²,3,,125000,AZN,"Binəqədi r.,7-ci mikrorayon q.",40.42527440160644,Bakı,49.85134363174438,3000106,18 Oktyabr 2022 ,,
23,Yeni tikili,3 / 7,87 m²,3,,71000,AZN,"Abşeron r.,Masazır q.",40.4941744317752,Bakı,49.76007521407585,3000109,18 Oktyabr 2022 ,,
24,Köhnə tikili,9 / 9,100 m²,5,var,110000,AZN,"Xətai r.,Həzi Aslanov q.",40.3807186,Bakı,49.92525120000005,3000112,18 Oktyabr 2022 ,,
25,Yeni tikili,14 / 16,50 m²,2,,110000,AZN,"Azadlıq Prospekti m.,Binəqədi r.,8-ci mikrorayon q.",40.42527440160644,Bakı,49.85134363174438,3000120,24 Dekabr 2022 ,,
26,Köhnə tikili,9 / 9,87.5 m²,2,var,125500,AZN,"Nəsimi r.,4-cü mikrorayon q.",40.41231993928577,Bakı,49.80468273982037,3000121,20 Noyabr 2022 ,,
27,Yeni tikili,10 / 17,230 m²,4,,365000,AZN,"ASAN Xidmət №1 ,Neftçi bazası ,Tibb Universiteti ,Nərimanov r.",40.40554735588255,Bakı,49.87506508827209,3000125,04 Noyabr 2022 ,,
28,Yeni tikili,9 / 16,45 m²,1,var,107000,AZN,"28 May m.,Neft Akademiyası ,Bakı Musiqi Akademiyası ,Səməd Vurğun parkı ,Milli Konservatoriya ,Nərimanov r.",40.37986494545423,Bakı,49.84853267669678,3000128,18 Oktyabr 2022 ,,
29,Yeni tikili,18 / 20,94 m²,3,,195000,AZN,"Şah İsmayıl Xətai m.,Xətai r.",40.3843596,Bakı,49.87381000000005,3000130,18 Oktyabr 2022 ,,
30,Köhnə tikili,2 / 5,34 m²,1,,76000,AZN,"Memar Əcəmi m.,Nəsimi r.,4-cü mikrorayon q.",40.4157710168948,Bakı,49.81499865115581,3000137,18 Oktyabr 2022 ,,
31,Yeni tikili,9 / 17,120 m²,3,,217000,AZN,"Montin bazarı ,Nərimanov r.",40.40554735588255,Bakı,49.87506508827209,3000141,01 Oktyabr 2022 ,,
32,Yeni tikili,10 / 15,83 m²,2,,150000,AZN,"Xətai r.,Həzi Aslanov q.",40.3807186,Bakı,49.92525120000005,3000147,18 Oktyabr 2022 ,,
33,Köhnə tikili,5 / 5,45 m²,2,,50000,AZN,Sumqayıt,40.60220966359696,Sumqayıt,49.64804138148667,3000152,18 Oktyabr 2022 ,,
34,Yeni tikili,14 / 17,90 m²,3,,205000,AZN,"Nəsimi bazarı ,Park Zorge ,Koala parkı ,Nəsimi r.",40.42527440160644,Bakı,49.85134363174438,3000155,18 Oktyabr 2022 ,,
35,Köhnə tikili,1 / 9,80 m²,4,var,116000,AZN,"Əhmədli m.,Xətai r.,Əhmədli q.",40.37613086332457,Bakı,49.91559462210881,3000163,19 Noyabr 2022 ,,
36,Yeni tikili,3 / 18,92 m²,2,,186500,AZN,"Nəriman Nərimanov m.,Nərimanov r.",40.40718945487256,Bakı,49.81836318969727,3000180,18 Noyabr 2022 ,,
37,Köhnə tikili,3 / 9,40 m²,2,,65000,AZN,"Xalqlar Dostluğu m.,Xətai r.,Əhmədli q.",40.39968476091122,Bakı,49.94952532143708,3000184,19 Oktyabr 2022 ,,
38,Yeni tikili,11 / 12,57 m²,2,,78000,AZN,Qaradağ r.,40.30993802049373,Bakı,49.74146935880666,3000201,19 Oktyabr 2022 ,,
39,Köhnə tikili,1 / 5,58 m²,2,,77000,AZN,"Memar Əcəmi m.,Nəsimi r.",40.42463128324992,Bakı,49.82827342647775,3000219,24 Sentyabr 2022 ,,
40,Yeni tikili,15 / 16,117.5 m²,3,,255000,AZN,Nərimanov r.,40.4089166,Bakı,49.86399959999994,3000221,19 Oktyabr 2022 ,,
41,Köhnə tikili,2 / 2,56 m²,2,,80000,AZN,"Binəqədi r.,M.Ə.Rəsulzadə q.",40.4339581,Bakı,49.83662379999998,3000222,19 Oktyabr 2022 ,,
42,Yeni tikili,2 / 12,92 m²,3,,169000,AZN,"Azadlıq Prospekti m.,Binəqədi r.,8-ci mikrorayon q.",40.42646832971582,Bakı,49.84398112963868,3000235,19 Oktyabr 2022 ,,
43,Yeni tikili,4 / 16,106 m²,3,,260000,AZN,"ASAN Xidmət №1 ,Tibb Universiteti ,Nəsimi bazarı ,Nəsimi r.",40.39677903900652,Bakı,49.83575778576663,3000244,15 Oktyabr 2022 ,,
44,Yeni tikili,11 / 16,140 m²,4,,150000,AZN,Abşeron r.,40.45511190000001,Xırdalan,49.74459389999993,3000250,19 Oktyabr 2022 ,,
45,Köhnə tikili,2 / 9,55 m²,2,,73500,AZN,"Suraxanı r.,Yeni Günəşli q.",40.38395801295385,Bakı,49.97983082359229,3000253,19 Oktyabr 2022 ,,
46,Köhnə tikili,8 / 8,60 m²,2,,118000,AZN,"Sovetski ,Nərimanov heykəli ,Yasamal r.",40.36822884896801,Bakı,49.813362210989,3000258,04 Oktyabr 2022 ,,
47,Köhnə tikili,4 / 9,82 m²,3,,130000,AZN,"Əhmədli m.,Xətai r.",40.36822884896801,Bakı,49.813362210989,3000260,28 Sentyabr 2022 ,,
48,Köhnə tikili,5 / 5,65 m²,3,,105000,AZN,"Neftçilər m.,Nizami r.,8-ci kilometr q.",40.41019578104481,Bakı,49.94320392608643,3000272,27 Dekabr 2022 ,,
49,Yeni tikili,4 / 10,70 m²,2,,117000,AZN,"ASAN Xidmət №1 ,TQDK ,Nəsimi bazarı ,Nəsimi r.",40.39796181991337,Bakı,49.8393312802966,3000276,19 Oktyabr 2022 ,,
50,Köhnə tikili,3 / 9,60 m²,2,,107000,AZN,"Binəqədi r.,9-cu mikrorayon q.",40.42793349999999,Bakı,49.81359980000002,3000287,19 Oktyabr 2022 ,,
51,Yeni tikili,13 / 16,134 m²,3,,165000,AZN,"Suraxanı r.,Qaraçuxur q.",40.38499730777751,Bakı,49.83810424804688,3000297,06 Oktyabr 2022 ,,
52,Köhnə tikili,1 / 9,60 m²,2,,95000,AZN,"Binəqədi r.,9-cu mikrorayon q.",40.42793349999999,Bakı,49.81359980000002,3000301,19 Oktyabr 2022 ,,
53,Yeni tikili,15 / 20,154 m²,4,,232000,AZN,"Azadlıq Prospekti m.,Binəqədi r.,8-ci mikrorayon q.",40.42527440160644,Bakı,49.85134363174438,3000308,19 Oktyabr 2022 ,,
54,Köhnə tikili,1 / 5,80 m²,3,,125000,AZN,"Sabunçu r.,Bakıxanov q.",40.41506433016008,Bakı,49.96858546860277,3000315,19 Oktyabr 2022 ,,
55,Köhnə tikili,1 / 5,57 m²,2,,67000,AZN,"Nizami r.,8-ci kilometr q.",40.40553291262841,Bakı,49.9570362036692,3000325,29 Sentyabr 2022 ,,
56,Yeni tikili,5 / 17,60 m²,2,yoxdur,118000,AZN,"Tibb Universiteti ,ASAN Xidmət №1 ,Nəsimi r.",40.39989258617802,Bakı,49.83979431395813,3000332,09 Dekabr 2022 ,,
57,Köhnə tikili,1 / 9,77 m²,3,,120000,AZN,"Bakı Dövlət Universiteti ,Yasamal r.",40.38525881895442,Bakı,49.85801696777344,3000342,19 Oktyabr 2022 ,,
58,Yeni tikili,3 / 17,72 m²,2,,145000,AZN,"Qara Qarayev m.,Nizami r.",40.38873191798482,Bakı,49.95395421981815,3000344,18 Noyabr 2022 ,,
59,Köhnə tikili,4 / 9,92 m²,3,,165000,AZN,"Şəhidlər xiyabanı ,Yasamal r.",40.3863886681378,Bakı,49.80817391355895,3000353,19 Oktyabr 2022 ,,
60,Yeni tikili,9 / 19,105 m²,3,var,138000,AZN,"İnşaatçılar m.,Yasamal r.",40.39980377915154,Bakı,49.86642837524414,3000355,10 Dekabr 2022 ,,
61,Köhnə tikili,7 / 10,110 m²,4,,245000,AZN,"İncəsənət və Mədəniyyət Un. ,Elmlər Akademiyası m.,Yasamal r.",40.3863886681378,Bakı,49.80817391355895,3000357,19 Oktyabr 2022 ,,
62,Yeni tikili,14 / 16,71 m²,1,,85000,AZN,"Avtovağzal m.,Binəqədi r.,Biləcəri q.",40.42134255321898,Bakı,49.79434202322889,3000364,19 Oktyabr 2022 ,,
63,Yeni tikili,12 / 18,90 m²,2,,180000,AZN,"Qara Qarayev m.,Nizami r.",40.38873191798482,Bakı,49.95395421981815,3000370,03 Fevral 2023 ,,
64,Yeni tikili,7 / 16,55 m²,2,,90000,AZN,"Həzi Aslanov m.,Xətai r.",40.39026819642278,Bakı,49.95772004127506,3000379,19 Oktyabr 2022 ,,
65,Yeni tikili,18 / 21,140 m²,3,var,420000,AZN,"Nizami m.,Beşmərtəbə ,Yasamal r.",40.37957159768438,Bakı,49.83156913493153,3000382,19 Noyabr 2022 ,,
66,Yeni tikili,4 / 15,148 m²,3,yoxdur,213000,AZN,"Nəriman Nərimanov m.,Nərimanov r.",40.38264366149726,Bakı,49.87209320068359,3000383,19 Oktyabr 2022 ,,
67,Yeni tikili,11 / 11,36 m²,1,,38500,AZN,Xırdalan,40.45511190000001,Xırdalan,49.74459389999993,3000386,19 Oktyabr 2022 ,,
68,Yeni tikili,4 / 16,95.2 m²,3,,160000,AZN,"Şah İsmayıl Xətai m.,Xətai r.",40.38264366149726,Bakı,49.87209320068359,3000389,19 Oktyabr 2022 ,,
69,Yeni tikili,11 / 18,118 m²,3,,143000,AZN,"Yasamal r.,Yeni Yasamal q.",40.38499730777751,Bakı,49.84222412109375,3000393,19 Oktyabr 2022 ,,
70,Yeni tikili,8 / 16,98 m²,2,,180000,AZN,"Qara Qarayev m.,Nizami r.",40.38873191798482,Bakı,49.95395421981815,3000398,18 Noyabr 2022 ,,
71,Yeni tikili,5 / 5,54 m²,2,,45000,AZN,"Abşeron r.,Masazır q.",40.49185094555289,Bakı,49.75366323871008,3000408,19 Oktyabr 2022 ,,
72,Yeni tikili,11 / 12,107 m²,3,,137000,AZN,"Qara Qarayev m.,Nizami r.",40.39816149998397,Bakı,49.84086155891422,3000420,29 Oktyabr 2022 ,,
73,Yeni tikili,18 / 27,150 m²,3,,360000,AZN,Yasamal r.,40.37620916175648,Bakı,49.81580107043555,3000431,14 Oktyabr 2022 ,,
74,Yeni tikili,13 / 16,98 m²,3,yoxdur,208000,AZN,"Qara Qarayev m.,Nizami r.",40.38873191798482,Bakı,49.95395421981815,3000437,03 Mart 2023 ,,
75,Yeni tikili,14 / 17,70 m²,2,var,121000,AZN,"Həzi Aslanov m.,Xətai r.,Həzi Aslanov q.",40.38781667161964,Bakı,49.85220193862915,3000440,19 Oktyabr 2022 ,,
76,Yeni tikili,8 / 18,102 m²,2,,163200,AZN,"Nəriman Nərimanov m.,Nəriman Nərimanov parkı ,Nərimanov r.",40.3863886681378,Bakı,49.80817391355895,3000448,19 Oktyabr 2022 ,,
77,Yeni tikili,13 / 17,116 m²,3,,295000,AZN,"Nəriman Nərimanov m.,Nəriman Nərimanov parkı ,Nərimanov r.",40.40554735588255,Bakı,49.87506508827209,3000449,19 Oktyabr 2022 ,,
78,Yeni tikili,2 / 20,60 m²,2,var,101000,AZN,Xətai r.,40.39989258617802,Bakı,49.83979431395813,3000459,19 Oktyabr 2022 ,,
79,Yeni tikili,15 / 17,216 m²,4,,645000,AZN,"M.Hüseynzadə parkı ,Sevil Qazıyeva parkı ,Nizami m.,Yasamal r.",40.40554735588255,Bakı,49.87506508827209,3000470,19 Oktyabr 2022 ,,
80,Yeni tikili,14 / 14,72 m²,2,,125000,AZN,Nərimanov r.,40.40165027405231,Bakı,49.86080646514893,3000475,19 Oktyabr 2022 ,,
81,Yeni tikili,11 / 17,60 m²,2,var,93000,AZN,"Neftçilər m.,Nizami r.",40.39816149998397,Bakı,49.84086155891422,3000481,05 Noyabr 2022 ,,
82,Köhnə tikili,2 / 9,80 m²,3,,125000,AZN,Xətai r.,40.37104456957248,Bakı,49.95549254560103,3000489,19 Oktyabr 2022 ,,
83,Yeni tikili,6 / 6,75 m²,3,,68000,AZN,"Abşeron r.,Masazır q.",40.38873191798482,Bakı,49.95395421981815,3000493,19 Oktyabr 2022 ,,
84,Yeni tikili,4 / 9,57 m²,2,var,76000,AZN,Abşeron r.,40.37005679625383,Xırdalan,49.82993423938751,3000494,19 Oktyabr 2022 ,,
85,Köhnə tikili,2 / 5,41 m²,2,,83000,AZN,"İnşaatçılar m.,Yasamal r.,Yasamal q.",40.39408422578834,Bakı,49.80179786682129,3000496,16 Oktyabr 2022 ,,
86,Yeni tikili,9 / 17,106 m²,3,,250000,AZN,"Yasamal bazarı ,İnşaatçılar m.,Yasamal r.",40.37620916175648,Bakı,49.81580107043555,3000500,19 Oktyabr 2022 ,,
87,Köhnə tikili,2 / 4,64 m²,2,,218000,AZN,"Azərbaycan kinoteatrı ,Fontanlar bağı ,Xalça Muzeyi ,M.Ə.Sabir parkı ,İçəri Şəhər ,Mərkəzi Univermaq ,Sahil m.,İçəri Şəhər m.,Səbail r.",40.37738239264175,Bakı,49.82495069503784,3000510,07 Noyabr 2022 ,,
88,Yeni tikili,15 / 17,144 m²,3,,348000,AZN,"Koala parkı ,Dostluq kinoteatrı ,Nəsimi bazarı ,Park Zorge ,Nəsimi r.",40.39205366748811,Bakı,49.84065234661102,3000513,28 Yanvar 2023 ,,
89,Köhnə tikili,8 / 9,120 m²,5,,140900,AZN,"Neapol dairəsi ,Xətai r.",40.37104456957248,Bakı,49.95549254560103,3000514,25 Oktyabr 2022 ,,
90,Yeni tikili,15 / 18,94 m²,3,,230000,AZN,"Bakı Slavyan Universiteti ,Azərbaycan Dillər Universiteti ,28 May m.,Nəsimi r.",40.38525881895442,Bakı,49.85801696777344,3000515,19 Oktyabr 2022 ,,
91,Yeni tikili,12 / 13,68 m²,2,,108000,AZN,"Qara Qarayev m.,Nizami r.",40.3863886681378,Bakı,49.80817391355895,3000518,19 Oktyabr 2022 ,,
92,Köhnə tikili,2 / 5,75 m²,3,,165000,AZN,"Nəriman Nərimanov m.,Nəriman Nərimanov parkı ,Nərimanov r.",40.39203732471822,Bakı,49.84165549278259,3000520,18 Dekabr 2022 ,,
93,Köhnə tikili,2 / 9,50 m²,2,,86000,AZN,"Yasamal bazarı ,İnşaatçılar m.,Yasamal r.",40.37660389427779,Bakı,49.8131650686264,3000524,19 Oktyabr 2022 ,,
94,Yeni tikili,9 / 17,83.1 m²,2,var,145000,AZN,"ASAN Xidmət №1 ,Neftçi bazası ,Tibb Universiteti ,Nəsimi r.",40.40554735588255,Bakı,49.87506508827209,3000535,18 Noyabr 2022 ,,
95,Yeni tikili,3 / 18,100 m²,3,,170000,AZN,"Yasamal bazarı ,İnşaatçılar m.,Yasamal r.",40.38873191798482,Bakı,49.95395421981815,3000538,18 Dekabr 2022 ,,
96,Köhnə tikili,1 / 4,55 m²,2,,126000,AZN,"Axundov bağı ,İqsadiyyat Universiteti ,Dövlət İdarəçilik Akademiyası ,İçəri Şəhər m.,Prezident parkı ,Sovetski ,Qubernator parkı ,M.Ə.Sabir parkı ,Nərimanov heykəli ,Səbail r.",40.39816149998397,Bakı,49.84086155891422,3000540,29 Sentyabr 2022 ,,
97,Köhnə tikili,5 / 5,34 m²,1,,65000,AZN,"Neftçi bazası ,Nərimanov r.",40.38264366149726,Bakı,49.87209320068359,3000541,19 Oktyabr 2022 ,,
98,Yeni tikili,16 / 17,98 m²,3,,129000,AZN,"Həzi Aslanov m.,Xətai r.,Köhnə Günəşli q.",40.39989258617802,Bakı,49.83979431395813,3000542,19 Oktyabr 2022 ,,
99,Yeni tikili,9 / 16,145 m²,3,,230000,AZN,"Zərifə Əliyeva adına park ,Binəqədi r.",40.37224994422943,Bakı,49.83342432222912,3000545,19 Oktyabr 2022 ,,
100,Yeni tikili,10 / 14,114 m²,3,,187000,AZN,"Binəqədi r.,8-ci mikrorayon q.",40.3863886681378,Bakı,49.80817391355895,3000549,13 Oktyabr 2022 ,,
101,Yeni tikili,10 / 18,83 m²,3,,184000,AZN,"Şah İsmayıl Xətai m.,Xətai r.",40.38264366149726,Bakı,49.87209320068359,3000550,04 Fevral 2023 ,,
102,Yeni tikili,11 / 15,136 m²,3,,295000,AZN,"Rəssamlıq Akademiyası ,Nəriman Nərimanov parkı ,Nəriman Nərimanov m.,Nərimanov r.",40.40554735588255,Bakı,49.87506508827209,3000565,19 Oktyabr 2022 ,,
103,Köhnə tikili,8 / 9,85 m²,3,var,123500,AZN,Yasamal r.,40.37862575802446,Bakı,49.83980533468834,3000566,19 Oktyabr 2022 ,,
104,Köhnə tikili,4 / 5,60 m²,2,,138000,AZN,"Texniki Universiteti ,Space TV ,Memarlıq və İnşaat Universiteti ,Hüseyn Cavid parkı ,Elmlər Akademiyası m.,Yasamal r.",40.36897235561476,Bakı,49.81641665647054,3000569,19 Oktyabr 2022 ,,
105,Yeni tikili,13 / 16,131 m²,3,,280000,AZN,"ASAN Xidmət №1 ,TQDK ,Nəsimi bazarı ,Nəsimi r.",40.37005679625383,Bakı,49.82993423938751,3000571,19 Oktyabr 2022 ,,
106,Yeni tikili,17 / 17,120 m²,3,,160000,AZN,"Nizami r.,8-ci kilometr q.",40.41393134886769,Bakı,49.94170963007977,3000575,19 Oktyabr 2022 ,,
107,Köhnə tikili,3 / 9,80 m²,3,,137000,AZN,"Binəqədi r.,9-cu mikrorayon q.",40.42793349999999,Bakı,49.81359980000002,3000581,19 Oktyabr 2022 ,,
108,Yeni tikili,13 / 13,55 m²,2,,54000,AZN,"Xətai r.,Həzi Aslanov q.",40.36822884896801,Bakı,49.813362210989,3000582,19 Oktyabr 2022 ,,
109,Yeni tikili,7 / 18,142 m²,3,,195000,AZN,"Səbail r.,Badamdar q.",40.37024250177031,Bakı,49.97394200996779,3000583,21 Oktyabr 2022 ,,
110,Köhnə tikili,3 / 5,75 m²,3,,180000,AZN,"Dostluq kinoteatrı ,Koala parkı ,Park Zorge ,Nəsimi r.",40.3861741000781,Bakı,49.85149383544922,3000588,12 Fevral 2023 ,,
111,Yeni tikili,9 / 13,118 m²,3,var,137000,AZN,Abşeron r.,40.37005679625383,Xırdalan,49.82993423938751,3000589,19 Oktyabr 2022 ,,
112,Yeni tikili,13 / 17,68 m²,3,var,145000,AZN,"Qara Qarayev m.,Nizami r.,8-ci kilometr q.",40.41740061397397,Bakı,49.92777585983276,3000595,19 Oktyabr 2022 ,,
113,Yeni tikili,11 / 16,94 m²,3,,170000,AZN,Nərimanov r.,40.4089166,Bakı,49.86399959999994,3000614,19 Oktyabr 2022 ,,
114,Yeni tikili,21 / 23,90 m²,2,,78000,AZN,"Yasamal r.,Yasamal q.",40.41082277366399,Bakı,49.80035062062916,3000615,19 Oktyabr 2022 ,,
115,Yeni tikili,9 / 17,114 m²,3,,255000,AZN,"Hüseyn Cavid parkı ,Texniki Universiteti ,Elmlər Akademiyası m.,Yasamal r.",40.39203732471822,Bakı,49.84165549278259,3000616,19 Oktyabr 2022 ,,
116,Yeni tikili,13 / 18,86 m²,3,var,171900,AZN,"Bakı Dövlət Universiteti ,Elmlər Akademiyası m.,Yasamal r.",40.37024250177031,Bakı,49.97394200996779,3000618,06 Noyabr 2022 ,var,var
117,Yeni tikili,16 / 19,123 m²,3,,265000,AZN,"Şah İsmayıl Xətai m.,Xətai r.,Ağ şəhər q.",40.38856031023877,Bakı,49.87125635147095,3000619,19 Oktyabr 2022 ,,
118,Köhnə tikili,1 / 5,50 m²,2,,80000,AZN,Binəqədi r.,40.47369535977774,Bakı,49.82554569843943,3000627,19 Oktyabr 2022 ,,
119,Yeni tikili,2 / 15,120 m²,3,,255000,AZN,"Nəriman Nərimanov m.,Nəriman Nərimanov parkı ,Nərimanov r.",40.39203732471822,Bakı,49.84165549278259,3000632,10 Oktyabr 2022 ,,
120,Yeni tikili,11 / 17,58 m²,2,,125000,AZN,"Azərbaycan turizm institutu ,Nərimanov r.",40.38499730777751,Bakı,49.83810424804688,3000636,19 Oktyabr 2022 ,,
121,Yeni tikili,3 / 18,111 m²,2,,180000,AZN,"Şah İsmayıl Xətai m.,Xətai r.",40.38264366149726,Bakı,49.87209320068359,3000638,19 Oktyabr 2022 ,,
122,Yeni tikili,16 / 17,126 m²,3,,162000,AZN,"Həzi Aslanov m.,Xətai r.",40.371510946835,Bakı,49.95338285124582,3000639,19 Oktyabr 2022 ,,
123,Köhnə tikili,2 / 9,35 m²,1,,72000,AZN,"Xalqlar Dostluğu m.,Nizami r.",40.37104456957248,Bakı,49.95549254560103,3000641,19 Oktyabr 2022 ,,
124,Yeni tikili,2 / 12,179 m²,4,,300000,AZN,"Azərbaycan turizm institutu ,Nərimanov r.",40.38873191798482,Bakı,49.95395421981815,3000650,19 Oktyabr 2022 ,,
125,Yeni tikili,7 / 19,55 m²,2,,115000,AZN,"Binəqədi r.,9-cu mikrorayon q.",40.3863886681378,Bakı,49.80817391355895,3000652,04 Oktyabr 2022 ,,
126,Yeni tikili,9 / 18,130 m²,3,var,224000,AZN,"Binəqədi r.,7-ci mikrorayon q.",40.427228007581,Bakı,49.84982617250768,3000658,05 Mart 2023 ,,
127,Yeni tikili,9 / 16,152 m²,4,var,300000,AZN,"Nəriman Nərimanov m.,Nərimanov r.",40.36822884896801,Bakı,49.813362210989,3000664,19 Oktyabr 2022 ,,
128,Yeni tikili,18 / 18,60 m²,2,,110000,AZN,"İnşaatçılar m.,Yasamal r.",40.37620916175648,Bakı,49.81580107043555,3000668,19 Noyabr 2022 ,,
129,Yeni tikili,10 / 18,135 m²,3,var,160000,AZN,"Səbail r.,Badamdar q.",40.37620916175648,Bakı,49.81580107043555,3000670,19 Oktyabr 2022 ,,
130,Köhnə tikili,1 / 9,86 m²,4,,159000,AZN,"Yasamal r.,Yeni Yasamal q.",40.37620916175648,Bakı,49.81580107043555,3000700,18 Mart 2023 ,,
131,Köhnə tikili,9 / 9,100 m²,3,var,150000,AZN,"Səbail r.,Bayıl q.",40.3479519333145,Bakı,49.83371477021926,3000716,24 Fevral 2023 ,,
132,Yeni tikili,5 / 21,88 m²,3,var,179000,AZN,"ASAN Xidmət №1 ,Tibb Universiteti ,Neftçi bazası ,Nərimanov r.",40.39989258617802,Bakı,49.83979431395813,3000717,04 Dekabr 2022 ,,
133,Yeni tikili,7 / 16,61 m²,2,var,78000,AZN,Xırdalan,40.44952531844341,Xırdalan,49.74666992977745,3000718,19 Oktyabr 2022 ,,
134,Köhnə tikili,3 / 5,80 m²,4,,159000,AZN,"Space TV ,Nərimanov heykəli ,Yasamal r.",40.36536243188481,Bakı,49.8198433138537,3000719,19 Oktyabr 2022 ,,
135,Yeni tikili,15 / 21,75 m²,2,,175000,AZN,"Tibb Universiteti ,Nəsimi r.",40.40952590477563,Bakı,49.84445571899418,3000720,19 Oktyabr 2022 ,,
136,Yeni tikili,8 / 19,192 m²,4,,412000,AZN,"Nəriman Nərimanov m.,Nəriman Nərimanov parkı ,Nərimanov r.",40.38873191798482,Bakı,49.95395421981815,3000725,19 Oktyabr 2022 ,,
137,Köhnə tikili,3 / 4,65 m²,2,,162000,AZN,"Ağ şəhər ,ASAN Xidmət №2 ,Xətai r.,Ağ şəhər q.",40.3813596,Bakı,49.8843435,3000727,19 Oktyabr 2022 ,,
138,Yeni tikili,12 / 15,89 m²,3,var,215000,AZN,"Şah İsmayıl Xətai m.,Xətai r.",40.38264366149726,Bakı,49.87209320068359,3000729,05 Fevral 2023 ,,
139,Yeni tikili,3 / 13,57.5 m²,2,,145000,AZN,"Şah İsmayıl Xətai m.,Xətai r.",40.38264366149726,Bakı,49.87209320068359,3000744,30 Sentyabr 2022 ,,
140,Köhnə tikili,4 / 5,50 m²,2,,85000,AZN,"Memar Əcəmi m.,Nəsimi r.,4-cü mikrorayon q.",40.41346690150499,Bakı,49.80792681232816,3000746,19 Oktyabr 2022 ,,
141,Yeni tikili,16 / 20,154 m²,4,,232000,AZN,"Azadlıq Prospekti m.,Binəqədi r.,8-ci mikrorayon q.",40.39205366748811,Bakı,49.84065234661102,3000753,19 Oktyabr 2022 ,,
142,Yeni tikili,17 / 20,153 m²,3,,200000,AZN,"ASAN Xidmət №1 ,Neftçi bazası ,Tibb Universiteti ,Nərimanov r.",40.39270174045908,Bakı,49.83329557619629,3000755,11 Oktyabr 2022 ,,
143,Köhnə tikili,9 / 9,60 m²,2,,90000,AZN,"Xalqlar Dostluğu m.,Nizami r.",40.40027766320492,Bakı,49.84006762504578,3000761,08 Oktyabr 2022 ,,
144,Yeni tikili,8 / 12,65 m²,3,var,97000,AZN,"Suraxanı r.,Qaraçuxur q.",40.408,Bakı,49.974,3000769,19 Oktyabr 2022 ,,
145,Köhnə tikili,2 / 9,85 m²,3,,113000,AZN,Xətai r.,40.37024250177031,Bakı,49.97394200996779,3000770,18 Oktyabr 2022 ,,
146,Yeni tikili,11 / 17,80.9 m²,3,,88990,AZN,Xırdalan,40.45929229176101,Xırdalan,49.72090495179324,3000777,19 Oktyabr 2022 ,,
147,Yeni tikili,16 / 23,400 m²,5,,900000,AZN,"Dövlət Statistika Komitəsi ,İzmir parkı ,M.Hüseynzadə parkı ,Nizami m.,Yasamal r.",40.3836661585519,Bakı,49.82338445758023,3000780,19 Oktyabr 2022 ,,
148,Yeni tikili,14 / 19,71 m²,2,yoxdur,118000,AZN,"Neftçilər m.,Nizami r.",40.38816806232006,Bakı,49.83243942260742,3000792,12 Noyabr 2022 ,,
149,Yeni tikili,3 / 16,130 m²,3,,290000,AZN,"Axundov bağı ,Dövlət İdarəçilik Akademiyası ,İqsadiyyat Universiteti ,İçəri Şəhər m.,Prezident parkı ,Qubernator parkı ,Nərimanov heykəli ,Sovetski ,M.Ə.Sabir parkı ,Səbail r.",40.39270174045908,Bakı,49.83329557619629,3000794,19 Oktyabr 2022 ,,
150,Yeni tikili,5 / 16,130 m²,4,,360000,AZN,"Bakı Slavyan Universiteti ,28 May m.,Azərbaycan Dillər Universiteti ,Neft Akademiyası ,Nəsimi r.",40.38080859350129,Bakı,49.95724192764082,3000795,19 Oktyabr 2022 ,,
151,Yeni tikili,8 / 18,72 m²,2,var,111990,AZN,"Neftçilər m.,Nizami r.,8-ci kilometr q.",40.39989258617802,Bakı,49.83979431395813,3000799,30 Oktyabr 2022 ,var,var
152,Yeni tikili,10 / 14,92 m²,3,,188000,AZN,"Nəriman Nərimanov m.,Nərimanov r.",40.40554735588255,Bakı,49.87506508827209,3000806,03 Oktyabr 2022 ,,
153,Yeni tikili,17 / 18,102 m²,3,,155000,AZN,Yasamal r.,40.37620916175648,Bakı,49.81580107043555,3000812,19 Oktyabr 2022 ,,
154,Yeni tikili,20 / 20,74 m²,2,,82500,AZN,"Yasamal r.,Yasamal q.",40.39187391698855,Bakı,49.79019255013863,3000815,19 Oktyabr 2022 ,,
155,Yeni tikili,3 / 17,77 m²,3,,168000,AZN,"Bakı Slavyan Universiteti ,Azərbaycan Dillər Universiteti ,Dostluq kinoteatrı ,Nəsimi r.",40.38600208964922,Bakı,49.84466624765304,3000819,19 Oktyabr 2022 ,,
156,Köhnə tikili,2 / 6,38 m²,2,,96000,AZN,"Bakı Slavyan Universiteti ,28 May m.,Azərbaycan Dillər Universiteti ,Neft Akademiyası ,Nərimanov r.",40.39989258617802,Bakı,49.83979431395813,3000823,29 Sentyabr 2022 ,,
157,Yeni tikili,4 / 12,85 m²,3,,120000,AZN,Yasamal r.,40.39062061106752,Bakı,49.78839553932372,3000839,19 Oktyabr 2022 ,,
158,Köhnə tikili,5 / 5,72 m²,3,,38000,AZN,Cəlilabad,39.2028993,Cəlilabad,48.53148020000003,3000850,19 Oktyabr 2022 ,,
159,Köhnə tikili,2 / 5,47 m²,3,,112000,AZN,"Elmlər Akademiyası m.,Yasamal r.",40.37829929401477,Bakı,49.81050706075816,3000852,28 Sentyabr 2022 ,,
160,Yeni tikili,13 / 19,135 m²,3,,209000,AZN,"Ayna Sultanova heykəli ,Binəqədi r.,8-ci mikrorayon q.",40.4135940750087,Bakı,49.84570026397705,3000855,19 Oktyabr 2022 ,,
161,Köhnə tikili,2 / 2,55 m²,2,,39000,AZN,"Binəqədi r.,Sulutəpə q.",40.38499730777751,Bakı,49.83810424804688,3000863,04 Oktyabr 2022 ,,
162,Yeni tikili,9 / 18,206 m²,4,,381000,AZN,"Bakı Slavyan Universiteti ,Azərbaycan Dillər Universiteti ,28 May m.,Nəsimi r.",40.40554735588255,Bakı,49.87506508827209,3000864,19 Oktyabr 2022 ,,
163,Yeni tikili,10 / 17,129 m²,3,,275000,AZN,"Tibb Universiteti ,Nərimanov r.",40.38385318444095,Bakı,49.8454213142395,3000867,15 Fevral 2023 ,,
164,Yeni tikili,14 / 17,83 m²,2,,185000,AZN,"ASAN Xidmət №1 ,Neftçi bazası ,Tibb Universiteti ,Nərimanov r.",40.40761426997893,Bakı,49.80840682983398,3000868,04 Noyabr 2022 ,,
165,Yeni tikili,4 / 16,150 m²,3,,390000,AZN,"Cavanşir körpüsü ,Şah İsmayıl Xətai m.,Xətai r.",40.38003671984769,Bakı,49.86737269836432,3000874,19 Oktyabr 2022 ,,
166,Yeni tikili,7 / 16,60 m²,2,,75000,AZN,Xırdalan,40.45155242060076,Xırdalan,49.7435639317382,3000876,19 Oktyabr 2022 ,,
167,Yeni tikili,5 / 17,60 m²,2,,112000,AZN,"Tibb Universiteti ,ASAN Xidmət №1 ,Nəsimi r.",40.39610085831571,Bakı,49.83199196430972,3000879,19 Oktyabr 2022 ,,
168,Yeni tikili,8 / 18,124 m²,3,var,195000,AZN,"Yasamal r.,Yeni Yasamal q.",40.3938692615085,Bakı,49.79517166137695,3000880,19 Oktyabr 2022 ,,
169,Köhnə tikili,4 / 5,75 m²,2,,130000,AZN,"28 May m.,Bakı Slavyan Universiteti ,Nəsimi r.",40.38356554206655,Bakı,49.84914737316898,3000885,19 Oktyabr 2022 ,,
170,Yeni tikili,7 / 20,180 m²,4,,390000,AZN,"Tibb Universiteti ,Nəsimi r.",40.39232579999999,Bakı,49.82880550000004,3000886,27 Fevral 2023 ,,
171,Yeni tikili,8 / 17,117 m²,3,var,186000,AZN,"Yasamal r.,Yeni Yasamal q.",40.39986662852357,Bakı,49.80057899475097,3000889,19 Oktyabr 2022 ,,
172,Yeni tikili,5 / 16,152 m²,3,,197600,AZN,"İnşaatçılar m.,Yasamal r.",40.39584916837152,Bakı,49.85226631164551,3000892,19 Oktyabr 2022 ,,
173,Yeni tikili,11 / 12,96 m²,3,,195000,AZN,"Memar Əcəmi m.,Nəsimi r.",40.37620916175648,Bakı,49.81580107043555,3000899,19 Oktyabr 2022 ,,
174,Köhnə tikili,7 / 9,65 m²,2,var,90000,AZN,"Yasamal r.,Yeni Yasamal q.",40.39061957433251,Bakı,49.84664440155029,3000903,19 Oktyabr 2022 ,,
175,Yeni tikili,15 / 17,100 m²,2,,140000,AZN,"ASAN Xidmət №3 ,Yasamal r.",40.37649764183499,Bakı,49.84163403511051,3000904,29 Sentyabr 2022 ,,
176,Yeni tikili,11 / 18,100 m²,3,var,165000,AZN,Nizami r.,40.4087847,Bakı,49.92876260000003,3000905,19 Oktyabr 2022 ,var,var
177,Yeni tikili,9 / 23,155 m²,3,var,460000,AZN,"İncəsənət və Mədəniyyət Un. ,Elmlər Akademiyası m.,Yasamal r.,Yasamal q.",40.37024250177031,Bakı,49.97394200996779,3000913,15 Noyabr 2022 ,,
178,Yeni tikili,11 / 16,185 m²,4,,388000,AZN,"Bayıl parkı ,Səbail r.,Bayıl q.",40.3651072257085,Bakı,49.81950849294662,3000915,26 Dekabr 2022 ,,
179,Yeni tikili,16 / 18,200 m²,4,,375000,AZN,"Nəsimi bazarı ,Koala parkı ,Nəsimi r.",40.38613323957885,Bakı,49.82919931411747,3000920,03 Fevral 2023 ,,
180,Yeni tikili,6 / 19,80 m²,2,var,175000,AZN,Nərimanov r.,40.38421276815505,Bakı,49.8394775390625,3000923,25 Noyabr 2022 ,,
181,Köhnə tikili,5 / 9,110 m²,5,,150000,AZN,"Əhmədli m.,Xətai r.",40.39203732471822,Bakı,49.84165549278259,3000929,27 Fevral 2023 ,,
182,Yeni tikili,14 / 15,140 m²,3,,190500,AZN,"Təhsil Nazirliyi ,Nərimanov r.",40.40761426997893,Bakı,49.80840682983398,3000934,21 Dekabr 2022 ,,
183,Yeni tikili,14 / 18,100 m²,2,,140000,AZN,"Bakı Dövlət Universiteti ,Elmlər Akademiyası m.,Yasamal r.",40.38930339224178,Bakı,49.85948536585312,3000935,19 Oktyabr 2022 ,,
184,Yeni tikili,12 / 14,170 m²,3,,260000,AZN,"M.Hüseynzadə parkı ,Sevil Qazıyeva parkı ,İzmir parkı ,Rusiya səfirliyi ,Yasamal r.,Yasamal q.",40.38623094295786,Bakı,49.82824901066442,3000941,19 Oktyabr 2022 ,,
185,Yeni tikili,7 / 22,186 m²,4,,335000,AZN,"28 May m.,Bakı Slavyan Universiteti ,Şərq bazarı ,Nəsimi r.",40.40554735588255,Bakı,49.87506508827209,3000944,19 Oktyabr 2022 ,,
186,Yeni tikili,11 / 16,140 m²,4,var,149000,AZN,Abşeron r.,40.37005679625383,Xırdalan,49.82993423938751,3000949,19 Noyabr 2022 ,,
187,Yeni tikili,13 / 16,60 m²,2,,114999,AZN,"ASAN Xidmət №1 ,Tibb Universiteti ,Nərimanov r.",40.37024250177031,Bakı,49.97394200996779,3000951,27 Oktyabr 2022 ,,
188,Yeni tikili,14 / 17,63 m²,2,var,97000,AZN,Nizami r.,40.4087847,Bakı,49.92876260000003,3000954,19 Oktyabr 2022 ,var,var
189,Yeni tikili,3 / 14,110 m²,3,,220000,AZN,"Elmlər Akademiyası m.,Hüseyn Cavid parkı ,Bakı Dövlət Universiteti ,Yasamal r.",40.37533198376934,Bakı,49.81793688867354,3000960,19 Oktyabr 2022 ,,
190,Köhnə tikili,6 / 9,70 m²,2,,90500,AZN,"Binəqədi r.,9-cu mikrorayon q.",40.39061957433251,Bakı,49.84664440155029,3000961,27 Sentyabr 2022 ,,
191,Yeni tikili,3 / 7,135 m²,3,,265000,AZN,"Xətai r.,Ağ şəhər q.",40.3864601228786,Bakı,49.89195227622986,3000965,19 Oktyabr 2022 ,,
192,Yeni tikili,3 / 6,76 m²,2,var,85000,AZN,"Xətai r.,Həzi Aslanov q.",40.39989258617802,Bakı,49.83979431395813,3000970,21 Noyabr 2022 ,,
193,Yeni tikili,7 / 16,107.6 m²,2,var,118305,AZN,"Suraxanı r.,Massiv V q.",40.37988129117782,Bakı,49.9824070930481,3000979,07 Mart 2023 ,,
194,Yeni tikili,5 / 17,60 m²,2,,117800,AZN,"Tibb Universiteti ,Nəsimi r.",40.36942330420567,Bakı,49.82101321220402,3000984,07 Yanvar 2023 ,,
195,Köhnə tikili,3 / 4,55 m²,2,,95000,AZN,"Gənclik m.,Respublika stadionu ,Nərimanov r.",40.37649764183499,Bakı,49.84163403511051,3000990,05 Oktyabr 2022 ,,
196,Yeni tikili,5 / 16,66.7 m²,1,,70014,AZN,"Suraxanı r.,Massiv V q.",40.37988129117782,Bakı,49.9824070930481,3000994,13 Mart 2023 ,,
197,Köhnə tikili,4 / 5,44 m²,2,var,100000,AZN,"Dostluq kinoteatrı ,Azərbaycan Dillər Universiteti ,Bakı Slavyan Universiteti ,Koala parkı ,Nəsimi r.",40.36942330420567,Bakı,49.82101321220402,3000995,02 Noyabr 2022 ,,
198,Yeni tikili,13 / 16,134 m²,3,,172000,AZN,Sabunçu r.,40.40789650401813,Bakı,49.9743023144221,3000999,19 Oktyabr 2022 ,,
199,Köhnə tikili,2 / 9,45 m²,1,,71000,AZN,"Neftçilər m.,Nizami r.,8-ci kilometr q.",40.4107382,Bakı,49.9384708,3001000,23 Noyabr 2022 ,,
200,Yeni tikili,8 / 16,60 m²,2,var,96000,AZN,"Neftçilər m.,Nizami r.",40.40986188667103,Bakı,49.94269324411052,3001003,19 Oktyabr 2022 ,yoxdur,var
201,Köhnə tikili,5 / 5,39 m²,2,,102000,AZN,"Beşmərtəbə ,Nizami m.,Yasamal r.,Yasamal q.",40.38218599850386,Bakı,49.81046676635742,3001007,19 Oktyabr 2022 ,,
202,Yeni tikili,16 / 17,157 m²,3,,240000,AZN,Nərimanov r.,40.38535688538403,Bakı,49.82866287231445,3001010,19 Oktyabr 2022 ,,
203,Yeni tikili,10 / 12,178 m²,4,,249000,AZN,Nərimanov r.,40.37620916175648,Bakı,49.81580107043555,3001011,19 Oktyabr 2022 ,,
204,Köhnə tikili,4 / 5,75 m²,3,var,115000,AZN,"Memar Əcəmi m.,Nəsimi r.",40.38816806232006,Bakı,49.83243942260742,3001016,27 Oktyabr 2022 ,,
205,Köhnə tikili,5 / 9,100 m²,4,var,148000,AZN,"İnşaatçılar m.,Yasamal r.",40.39061957433251,Bakı,49.84664440155029,3001017,19 Oktyabr 2022 ,,
206,Yeni tikili,18 / 21,116 m²,3,,240000,AZN,"Bakmil m.,Nərimanov r.",40.38873191798482,Bakı,49.95395421981815,3001022,19 Oktyabr 2022 ,,
207,Yeni tikili,5 / 18,121 m²,3,var,156000,AZN,"Yasamal r.,Yeni Yasamal q.",40.39375634933801,Bakı,49.79622503872262,3001028,19 Oktyabr 2022 ,,
208,Yeni tikili,6 / 16,119 m²,3,,245000,AZN,"Hüseyn Cavid parkı ,Sovetski ,Texniki Universiteti ,Nərimanov heykəli ,Elmlər Akademiyası m.,Yasamal r.",40.37093916351538,Bakı,49.82099343374534,3001029,19 Oktyabr 2022 ,,
209,Köhnə tikili,2 / 5,30 m²,1,,69000,AZN,"Zoopark ,Dostluq kinoteatrı ,Nəsimi r.",40.39270174045908,Bakı,49.83329557619629,3001039,19 Oktyabr 2022 ,,
210,Yeni tikili,6 / 16,73.1 m²,1,var,76786,AZN,"Suraxanı r.,Massiv V q.",40.37988129117782,Bakı,49.9824070930481,3001043,Dünən 10:00 ,,
211,Köhnə tikili,2 / 3,72 m²,3,,160000,AZN,"İçəri Şəhər m.,Qubernator parkı ,Dövlət İdarəçilik Akademiyası ,İqsadiyyat Universiteti ,Prezident parkı ,Axundov bağı ,İçəri Şəhər ,M.Ə.Sabir parkı ,Azneft meydanı ,Nəsimi r.",40.36609875518228,Bakı,49.83178400478341,3001049,19 Oktyabr 2022 ,,
212,Yeni tikili,11 / 16,136 m²,3,,295000,AZN,"Rəssamlıq Akademiyası ,Nəriman Nərimanov parkı ,Nəriman Nərimanov m.,Nərimanov r.",40.40606433283491,Bakı,49.86231650326251,3001051,19 Oktyabr 2022 ,,
213,Köhnə tikili,3 / 3,80 m²,3,,220000,AZN,"Nizami kinoteatrı ,Sahil m.,Malokan bağı ,Fontanlar bağı ,Qış parkı ,Milli Konservatoriya ,Nəsimi r.",40.37370344120654,Bakı,49.84040694816825,3001061,19 Oktyabr 2022 ,,
214,Yeni tikili,6 / 20,127.4 m²,3,,484000,AZN,"Nərimanov heykəli ,Sovetski ,Axundov bağı ,Prezident parkı ,Şəlalə parkı ,Dövlət İdarəçilik Akademiyası ,İçəri Şəhər m.,Yasamal r.,Yasamal q.",40.37649764183499,Bakı,49.84163403511051,3001065,19 Dekabr 2022 ,,
215,Yeni tikili,2 / 15,58 m²,2,,76000,AZN,Xətai r.,40.39026819642278,Bakı,49.95772004127506,3001066,19 Oktyabr 2022 ,,
216,Yeni tikili,10 / 20,180 m²,4,var,334000,AZN,"Tibb Universiteti ,Yasamal r.",40.38816806232006,Bakı,49.83243942260742,3001071,01 Noyabr 2022 ,,
217,Yeni tikili,17 / 20,90 m²,2,,135000,AZN,"Avtovağzal m.,Yasamal r.,Yasamal q.",40.41815377451449,Bakı,49.798095616919,3001072,19 Oktyabr 2022 ,,
218,Yeni tikili,15 / 19,92 m²,2,,135000,AZN,"20 Yanvar m.,Yasamal r.",40.37024250177031,Bakı,49.97394200996779,3001074,28 Sentyabr 2022 ,,
219,Yeni tikili,10 / 18,90 m²,3,yoxdur,185000,AZN,"Şah İsmayıl Xətai m.,Xətai r.",40.36942330420567,Bakı,49.82101321220402,3001085,07 Fevral 2023 ,,
220,Yeni tikili,7 / 17,83 m²,3,,145000,AZN,"Botanika bağı ,Səbail r.,Badamdar q.",40.38341187453192,Bakı,49.82710719108582,3001087,15 Noyabr 2022 ,,
221,Yeni tikili,2 / 6,70 m²,3,,78000,AZN,Xırdalan,40.38855213843042,Xırdalan,49.87120270729065,3001088,19 Oktyabr 2022 ,,
222,Yeni tikili,5 / 6,130 m²,4,,86000,AZN,Xırdalan,40.45511190000001,Xırdalan,49.74459389999993,3001097,19 Oktyabr 2022 ,,
223,Yeni tikili,4 / 5,43 m²,2,,61000,AZN,Nizami r.,40.37649764183499,Bakı,49.84163403511051,3001099,19 Oktyabr 2022 ,,
224,Köhnə tikili,3 / 9,70 m²,3,var,127000,AZN,"Təhsil Nazirliyi ,Xətai r.",40.38855213843042,Bakı,49.87120270729065,3001102,19 Oktyabr 2022 ,,
225,Yeni tikili,4 / 20,192 m²,3,,750000,AZN,"ASAN Xidmət №2 ,Şah İsmayıl Xətai m.,Xətai r.",40.39584916837152,Bakı,49.85226631164551,3001114,19 Oktyabr 2022 ,,
226,Yeni tikili,8 / 8,76 m²,2,,60000,AZN,Xırdalan,40.45511190000001,Xırdalan,49.74459389999993,3001122,19 Oktyabr 2022 ,,
227,Yeni tikili,12 / 16,77 m²,1,,130000,AZN,"Nəsimi bazarı ,Koala parkı ,Park Zorge ,Nəsimi r.",40.38855213843042,Bakı,49.87120270729065,3001126,19 Oktyabr 2022 ,,
228,Yeni tikili,2 / 7,50 m²,2,,58000,AZN,Xırdalan,40.38855213843042,Xırdalan,49.87120270729065,3001130,19 Oktyabr 2022 ,,
229,Köhnə tikili,1 / 3,56 m²,2,,120000,AZN,"Mərkəzi Univermaq ,M.Ə.Sabir parkı ,Beşmərtəbə ,İqsadiyyat Universiteti ,İçəri Şəhər m.,Yasamal r.",40.37221537144323,Bakı,49.83198532782217,3001131,19 Oktyabr 2022 ,,
230,Yeni tikili,7 / 16,55 m²,2,var,90000,AZN,"Həzi Aslanov m.,Xətai r.",40.38855213843042,Bakı,49.87120270729065,3001132,19 Oktyabr 2022 ,,
231,Yeni tikili,8 / 19,70 m²,2,yoxdur,132000,AZN,"Neftçilər m.,Nizami r.",40.41127966205816,Bakı,49.94728398442605,3001133,19 Oktyabr 2022 ,,
232,Yeni tikili,9 / 17,111 m²,3,,231000,AZN,"Tibb Universiteti ,ASAN Xidmət №1 ,Nəsimi r.",40.39205366748811,Bakı,49.84065234661102,3001134,10 Oktyabr 2022 ,,
233,Yeni tikili,4 / 17,92 m²,3,yoxdur,166000,AZN,"Xətai r.,Həzi Aslanov q.",40.3807186,Bakı,49.92525120000005,3001135,22 Oktyabr 2022 ,,
234,Yeni tikili,13 / 17,154 m²,3,var,200000,AZN,"Botanika bağı ,Səbail r.,Badamdar q.",40.40554735588255,Bakı,49.87506508827209,3001137,18 Noyabr 2022 ,,
235,Yeni tikili,2 / 15,58 m²,2,,76000,AZN,"Xətai r.,Həzi Aslanov q.",40.39989258617802,Bakı,49.83979431395813,3001138,30 Oktyabr 2022 ,,
236,Yeni tikili,19 / 19,67 m²,1,,87000,AZN,Nərimanov r.,40.40606433283491,Bakı,49.86231650326251,3001140,19 Oktyabr 2022 ,,
237,Yeni tikili,11 / 14,143 m²,3,var,500000,AZN,"M.Ə.Sabir parkı ,İçəri Şəhər ,Azərbaycan kinoteatrı ,İqsadiyyat Universiteti ,İçəri Şəhər m.,Fontanlar bağı ,Qubernator parkı ,Dövlət İdarəçilik Akademiyası ,Mərkəzi Univermaq ,Azneft meydanı ,Axundov bağı ,Səbail r.",40.3651072257085,Bakı,49.81950849294662,3001142,13 Mart 2023 ,,
238,Yeni tikili,9 / 18,188 m²,4,,290000,AZN,"Şah İsmayıl Xətai m.,Xətai r.",40.38535688538403,Bakı,49.82866287231445,3001148,10 Fevral 2023 ,,
239,Köhnə tikili,4 / 9,105 m²,4,var,128000,AZN,"Xətai r.,Köhnə Günəşli q.",40.35752976717323,Bakı,49.96785079799746,3001151,Bugün 11:58 ,,
240,Köhnə tikili,9 / 9,105 m²,5,,122000,AZN,"Koroğlu m.,Nizami r.,8-ci kilometr q.",40.39989258617802,Bakı,49.83979431395813,3001159,19 Oktyabr 2022 ,,
241,Köhnə tikili,3 / 9,80 m²,3,,127000,AZN,Xətai r.,40.38613323957885,Bakı,49.82919931411747,3001163,30 Sentyabr 2022 ,,
242,Yeni tikili,15 / 20,73 m²,1,,105000,AZN,"Azadlıq Prospekti m.,Binəqədi r.,7-ci mikrorayon q.",40.39205366748811,Bakı,49.84065234661102,3001168,17 Oktyabr 2022 ,,
243,Yeni tikili,12 / 17,60 m²,2,,140000,AZN,"Səbail r.,Badamdar q.",40.39203732471822,Bakı,49.84165549278259,3001173,27 Sentyabr 2022 ,,
244,Yeni tikili,8 / 18,65 m²,2,,112000,AZN,Nizami r.,40.39026819642278,Bakı,49.95772004127506,3001181,18 Noyabr 2022 ,,
245,Köhnə tikili,7 / 9,96 m²,4,var,164500,AZN,"Bakı Dövlət Universiteti ,Memarlıq və İnşaat Universiteti ,Yasamal r.",40.37862575802446,Bakı,49.83980533468834,3001190,01 Yanvar 2023 ,,
246,Yeni tikili,8 / 17,65 m²,3,yoxdur,105000,AZN,"Ukrayna dairəsi ,Həzi Aslanov m.,Xətai r.",40.36942330420567,Bakı,49.82101321220402,3001191,19 Oktyabr 2022 ,,
247,Yeni tikili,5 / 7,88.5 m²,3,var,105000,AZN,"Abşeron r.,Masazır q.",40.49185094555289,Bakı,49.75366323871008,3001196,18 Noyabr 2022 ,,
248,Yeni tikili,15 / 17,108.8 m²,2,var,212000,AZN,"ASAN Xidmət №1 ,Tibb Universiteti ,Neftçi bazası ,Nəsimi r.",40.40554735588255,Bakı,49.87506508827209,3001198,18 Noyabr 2022 ,,
249,Yeni tikili,10 / 10,190 m²,5,var,269900,AZN,"İnşaatçılar m.,Yasamal r.",40.39989258617802,Bakı,49.83979431395813,3001203,10 Dekabr 2022 ,,
250,Yeni tikili,16 / 17,72 m²,2,var,118000,AZN,"Həzi Aslanov m.,Xətai r.",40.3709789333867,Bakı,49.95558443042722,3001217,19 Oktyabr 2022 ,var,var
251,Köhnə tikili,9 / 9,40 m²,2,var,78900,AZN,"Zərifə Əliyeva adına park ,Nəsimi r.,4-cü mikrorayon q.",40.38816806232006,Bakı,49.83243942260742,3001221,23 Oktyabr 2022 ,,
252,Yeni tikili,3 / 17,113 m²,3,var,190000,AZN,"Binəqədi r.,7-ci mikrorayon q.",40.39205366748811,Bakı,49.84065234661102,3001223,Bugün 14:11 ,,
253,Yeni tikili,12 / 17,85 m²,3,,180000,AZN,"ASAN Xidmət №1 ,Neftçi bazası ,Tibb Universiteti ,Nəsimi r.",40.40554735588255,Bakı,49.87506508827209,3001227,04 Noyabr 2022 ,,
254,Yeni tikili,14 / 20,58 m²,2,,89500,AZN,"Xətai r.,Həzi Aslanov q.",40.41913797142315,Bakı,49.92514979797704,3001230,19 Oktyabr 2022 ,,
255,Yeni tikili,12 / 17,174 m²,4,,330000,AZN,"Park Zorge ,Koala parkı ,Dostluq kinoteatrı ,Rusiya səfirliyi ,Nəsimi bazarı ,Nəsimi r.",40.39007604296815,Bakı,49.83774575893552,3001238,19 Oktyabr 2022 ,,
256,Köhnə tikili,1 / 3,40 m²,2,,68000,AZN,"Sahil m.,Xalça Muzeyi ,Sahil bağı ,Malokan bağı ,Fontanlar bağı ,Nizami kinoteatrı ,Nəsimi r.",40.37081537004331,Bakı,49.84339671704105,3001242,19 Oktyabr 2022 ,,
257,Yeni tikili,11 / 22,125 m²,3,,168000,AZN,"Avtovağzal m.,Yasamal r.,Yasamal q.",40.41575483732011,Bakı,49.79652690739096,3001244,19 Oktyabr 2022 ,,
258,Yeni tikili,3 / 22,67 m²,1,,100000,AZN,Nərimanov r.,40.39045008382347,Bakı,49.830508675731,3001245,19 Oktyabr 2022 ,,
259,Yeni tikili,8 / 9,178 m²,4,,312000,AZN,"ASAN Xidmət №1 ,Nəsimi bazarı ,Nəsimi r.",40.3975879443914,Bakı,49.83790355297855,3001251,19 Oktyabr 2022 ,,
260,Yeni tikili,1 / 6,74 m²,2,,65000,AZN,"Abşeron r.,Masazır q.",40.49185094555289,Bakı,49.75366323871008,3001255,18 Noyabr 2022 ,,
261,Yeni tikili,9 / 15,108 m²,2,,185000,AZN,"Təhsil Nazirliyi ,Nərimanov r.",40.39111874208582,Bakı,49.85755982212054,3001256,01 Dekabr 2022 ,,
262,Yeni tikili,8 / 17,65 m²,3,,110000,AZN,"Ukrayna dairəsi ,Əhmədli m.,Xətai r.",40.37996315645579,Bakı,49.95230286360446,3001260,21 Oktyabr 2022 ,,
263,Yeni tikili,11 / 14,170 m²,4,,260000,AZN,"M.Hüseynzadə parkı ,Sevil Qazıyeva parkı ,İzmir parkı ,Rusiya səfirliyi ,Nizami m.,Yasamal r.",40.37649764183499,Bakı,49.84163403511051,3001263,19 Oktyabr 2022 ,,
264,Yeni tikili,15 / 19,157 m²,3,,135000,AZN,"Xətai r.,Əhmədli q.",40.38896749455778,Bakı,49.96443003447146,3001265,19 Oktyabr 2022 ,,
265,Yeni tikili,6 / 10,85 m²,3,,86000,AZN,Xırdalan,40.38855213843042,Xırdalan,49.87120270729065,3001266,19 Oktyabr 2022 ,,
266,Yeni tikili,4 / 6,137 m²,4,var,187000,AZN,"Səbail r.,Bayıl q.",40.39270174045908,Bakı,49.83329557619629,3001269,19 Oktyabr 2022 ,,
267,Yeni tikili,5 / 16,61 m²,2,var,107000,AZN,"Xalqlar Dostluğu m.,Nizami r.,8-ci kilometr q.",40.39298300258589,Bakı,49.95403544813546,3001270,19 Oktyabr 2022 ,,
268,Köhnə tikili,5 / 5,47 m²,2,,77000,AZN,"Azadlıq Prospekti m.,Binəqədi r.,7-ci mikrorayon q.",40.42576717413449,Bakı,49.84178754912114,3001278,19 Oktyabr 2022 ,,
269,Yeni tikili,6 / 14,110 m²,3,var,191000,AZN,"Gənclik m.,Nəsimi r.",40.37862575802446,Bakı,49.83980533468834,3001279,20 Noyabr 2022 ,,
270,Yeni tikili,13 / 17,250 m²,4,,680000,AZN,"Nəriman Nərimanov m.,Nəriman Nərimanov parkı ,Nərimanov r.",40.38873191798482,Bakı,49.95395421981815,3001283,19 Oktyabr 2022 ,,
271,Yeni tikili,12 / 19,126 m²,3,,350000,AZN,"Şah İsmayıl Xətai m.,Xətai r.",40.3843596,Bakı,49.87381000000005,3001295,14 Oktyabr 2022 ,,
272,Yeni tikili,7 / 17,75 m²,2,,123000,AZN,"Park Zorge ,Nəsimi bazarı ,Koala parkı ,Tibb Universiteti ,Nəsimi r.",40.36942330420567,Bakı,49.82101321220402,3001300,06 Noyabr 2022 ,,
273,Yeni tikili,17 / 19,108 m²,3,,137000,AZN,"Həzi Aslanov m.,Xətai r.",40.37080880489071,Bakı,49.94672298431396,3001301,19 Oktyabr 2022 ,,
274,Köhnə tikili,5 / 5,45 m²,2,,50000,AZN,Nərimanov r.,40.40952590477563,Bakı,49.84445571899418,3001303,21 Noyabr 2022 ,,
275,Yeni tikili,12 / 16,100 m²,3,,225000,AZN,"Tibb Universiteti ,Park Zorge ,Nəsimi r.",40.39584916837152,Bakı,49.85226631164551,3001305,25 Oktyabr 2022 ,,
276,Yeni tikili,4 / 16,133 m²,3,,385000,AZN,"Təhsil Nazirliyi ,Nərimanov r.",40.37005679625383,Bakı,49.82993423938751,3001312,19 Oktyabr 2022 ,,
277,Yeni tikili,3 / 16,80 m²,2,,132000,AZN,"Nəsimi bazarı ,Koala parkı ,Nəsimi r.",40.38341187453192,Bakı,49.82710719108582,3001316,19 Oktyabr 2022 ,,
278,Yeni tikili,7 / 7,120 m²,3,,234000,AZN,"Ağ şəhər ,Xətai r.",40.37971756371439,Bakı,49.88608378845221,3001323,19 Oktyabr 2022 ,,
279,Yeni tikili,9 / 16,125 m²,3,var,230000,AZN,"Rəssamlıq Akademiyası ,Nərimanov r.",40.39816149998397,Bakı,49.84086155891422,3001325,05 Oktyabr 2022 ,var,var
280,Yeni tikili,8 / 20,58.5 m²,2,,155000,AZN,"Nəsimi bazarı ,ASAN Xidmət №1 ,Nəsimi r.",40.37512451826901,Bakı,49.81611013412476,3001326,19 Oktyabr 2022 ,,
281,Yeni tikili,3 / 21,135 m²,4,,330000,AZN,Nərimanov r.,40.38873191798482,Bakı,49.95395421981815,3001332,19 Oktyabr 2022 ,,
282,Köhnə tikili,9 / 9,66 m²,3,var,62000,AZN,"Xətai r.,Həzi Aslanov q.",40.36639880847979,Bakı,49.94969487190247,3001346,14 Mart 2023 ,,
283,Yeni tikili,2 / 17,97 m²,3,,255000,AZN,"Nəriman Nərimanov m.,Nərimanov r.",40.37005679625383,Bakı,49.82993423938751,3001349,19 Oktyabr 2022 ,,
284,Yeni tikili,19 / 21,205 m²,4,,385000,AZN,"Şah İsmayıl Xətai m.,Xətai r.",40.38613323957885,Bakı,49.82919931411747,3001354,19 Oktyabr 2022 ,,
285,Yeni tikili,9 / 17,57 m²,2,,106000,AZN,"Neftçilər m.,Nizami r.,8-ci kilometr q.",40.4107382,Bakı,49.9384708,3001356,30 Sentyabr 2022 ,,
286,Yeni tikili,5 / 13,120 m²,3,,195000,AZN,"Memar Əcəmi m.,Nəsimi r.,2-ci mikrorayon q.",40.39414959485713,Bakı,49.7993946075439,3001363,17 Yanvar 2023 ,,
287,Köhnə tikili,3 / 4,50 m²,2,,95000,AZN,"Gənclik m.,Respublika stadionu ,Nərimanov r.",40.40027766320492,Bakı,49.84006762504578,3001366,19 Oktyabr 2022 ,,
288,Yeni tikili,10 / 17,102 m²,3,var,165000,AZN,"Həzi Aslanov m.,Xətai r.,Həzi Aslanov q.",40.37167523922052,Bakı,49.9533748626709,3001375,27 Dekabr 2022 ,,
289,Yeni tikili,12 / 14,70 m²,2,,108000,AZN,"Qara Qarayev m.,Nizami r.",40.37742938831814,Bakı,49.80915784835819,3001381,19 Oktyabr 2022 ,,
290,Yeni tikili,2 / 19,126 m²,3,,138000,AZN,Xətai r.,40.39414959485713,Bakı,49.7993946075439,3001383,19 Oktyabr 2022 ,,
291,Yeni tikili,16 / 17,97 m²,3,,121500,AZN,"Binəqədi r.,9-cu mikrorayon q.",40.38816806232006,Bakı,49.83243942260742,3001386,30 Oktyabr 2022 ,,
292,Yeni tikili,12 / 17,100 m²,3,var,229000,AZN,"Tibb Universiteti ,Nəsimi bazarı ,ASAN Xidmət №1 ,Park Zorge ,Nəsimi r.",40.37024250177031,Bakı,49.97394200996779,3001387,01 Noyabr 2022 ,,
293,Yeni tikili,14 / 17,65 m²,2,,98000,AZN,"Həzi Aslanov m.,Xətai r.,Əhmədli q.",40.37108531279791,Bakı,49.95621890209966,3001388,19 Oktyabr 2022 ,,
294,Yeni tikili,16 / 17,150 m²,3,var,325000,AZN,"ASAN Xidmət №2 ,Şah İsmayıl Xətai m.,Xətai r.",40.38264366149726,Bakı,49.87209320068359,3001393,19 Oktyabr 2022 ,,
295,Köhnə tikili,8 / 9,80 m²,2,,150000,AZN,"Azadlıq Prospekti m.,Binəqədi r.,8-ci mikrorayon q.",40.39205366748811,Bakı,49.84065234661102,3001396,19 Oktyabr 2022 ,,
296,Yeni tikili,8 / 17,124 m²,4,,180000,AZN,"Həzi Aslanov m.,Xətai r.,Əhmədli q.",40.37045591741983,Bakı,49.95199174069219,3001411,19 Oktyabr 2022 ,,
297,Yeni tikili,19 / 19,150 m²,4,,153000,AZN,"Tibb Universiteti ,ASAN Xidmət №1 ,Nərimanov r.",40.38613323957885,Bakı,49.82919931411747,3001412,19 Oktyabr 2022 ,,
298,Yeni tikili,16 / 17,96 m²,3,var,128900,AZN,Xətai r.,40.36942330420567,Bakı,49.82101321220402,3001415,24 Oktyabr 2022 ,var,var
299,Köhnə tikili,5 / 5,80 m²,4,,150000,AZN,"Gənclik m.,Nərimanov r.",40.40470108988175,Bakı,49.85438656289056,3001419,19 Oktyabr 2022 ,,
300,Yeni tikili,17 / 19,71 m²,2,,137000,AZN,"Neftçilər m.,Nizami r.",40.38930339224178,Bakı,49.85948536585312,3001421,04 Noyabr 2022 ,,
301,Yeni tikili,10 / 12,96 m²,3,,185000,AZN,"Xalqlar Dostluğu m.,Nizami r.",40.39832939617313,Bakı,49.9538650813511,3001425,19 Oktyabr 2022 ,,
302,Yeni tikili,9 / 16,80 m²,3,yoxdur,177000,AZN,"Azərbaycan turizm institutu ,Təhsil Nazirliyi ,Nərimanov r.",40.38816806232006,Bakı,49.83243942260742,3001427,18 Noyabr 2022 ,,
303,Yeni tikili,8 / 19,82 m²,3,,150000,AZN,"Həzi Aslanov m.,Xətai r.,Həzi Aslanov q.",40.37167523922052,Bakı,49.9533748626709,3001429,03 Fevral 2023 ,,
304,Köhnə tikili,1 / 9,80 m²,3,,147000,AZN,"Bakı Asiya Universiteti ,8 Noyabr m.,Nəsimi r.",40.40098956345485,Bakı,49.8193719478075,3001434,19 Oktyabr 2022 ,,
305,Yeni tikili,5 / 19,150 m²,3,,225000,AZN,"ASAN Xidmət №3 ,Yasamal bazarı ,Yasamal r.,Yasamal q.",40.37900963810223,Bakı,49.80477815208678,3001441,19 Oktyabr 2022 ,,
306,Köhnə tikili,4 / 9,130 m²,5,,158000,AZN,"Əhmədli m.,Xətai r.,Əhmədli q.",40.39989258617802,Bakı,49.83979431395813,3001442,19 Oktyabr 2022 ,,
307,Yeni tikili,12 / 15,100 m²,3,var,225000,AZN,"Nəsimi bazarı ,ASAN Xidmət №1 ,Tibb Universiteti ,Nəsimi r.",40.39989258617802,Bakı,49.83979431395813,3001450,21 Noyabr 2022 ,,
308,Köhnə tikili,9 / 9,75 m²,2,var,77000,AZN,"Suraxanı r.,Yeni Günəşli q.",40.39989258617802,Bakı,49.83979431395813,3001460,27 Oktyabr 2022 ,var,var
309,Yeni tikili,15 / 17,130 m²,3,,186000,AZN,"Həzi Aslanov m.,Xətai r.,Əhmədli q.",40.36999416371186,Bakı,49.95276421688848,3001463,19 Oktyabr 2022 ,,
310,Yeni tikili,4 / 14,160 m²,4,,380000,AZN,"8 Noyabr m.,Nəsimi r.",40.39683246906856,Bakı,49.81604018783568,3001474,19 Oktyabr 2022 ,,
311,Yeni tikili,6 / 16,66 m²,2,,205000,AZN,"Elmlər Akademiyası m.,Hüseyn Cavid parkı ,Bakı Dövlət Universiteti ,Yasamal r.",40.40761426997893,Bakı,49.80840682983398,3001475,19 Oktyabr 2022 ,,
312,Köhnə tikili,5 / 5,40 m²,1,var,49000,AZN,"Əhmədli m.,Xətai r.",40.41932422288878,Bakı,49.92522239685059,3001484,19 Oktyabr 2022 ,,
313,Yeni tikili,6 / 10,67 m²,2,,103000,AZN,"Həzi Aslanov m.,Xətai r.,Əhmədli q.",40.36779603506538,Bakı,49.95617973013231,3001487,19 Oktyabr 2022 ,,
314,Yeni tikili,10 / 16,171 m²,4,,450000,AZN,"Dostluq kinoteatrı ,Azərbaycan Dillər Universiteti ,Bakı Slavyan Universiteti ,Koala parkı ,Nəsimi r.",40.40554735588255,Bakı,49.87506508827209,3001491,19 Yanvar 2023 ,,
315,Köhnə tikili,8 / 9,72 m²,3,,125000,AZN,"Sovetski ,Nərimanov heykəli ,Yasamal r.",40.37533198376934,Bakı,49.81793688867354,3001495,19 Oktyabr 2022 ,,
316,Yeni tikili,14 / 18,102 m²,3,yoxdur,160500,AZN,Xətai r.,40.37862575802446,Bakı,49.83980533468834,3001498,02 Mart 2023 ,,
317,Yeni tikili,3 / 14,63 m²,2,,110000,AZN,"Əhmədli m.,Xətai r.,Əhmədli q.",40.41913797142315,Bakı,49.92514979797704,3001504,19 Oktyabr 2022 ,,
318,Köhnə tikili,4 / 5,38 m²,2,,95000,AZN,"İncəsənət və Mədəniyyət Un. ,Nizami m.,Yasamal r.",40.36822884896801,Bakı,49.813362210989,3001505,19 Oktyabr 2022 ,,
319,Yeni tikili,16 / 17,105 m²,3,var,259000,AZN,"Elmlər Akademiyası m.,Yasamal r.",40.37801785314237,Bakı,49.81117486953735,3001510,18 Noyabr 2022 ,,
320,Köhnə tikili,2 / 5,32 m²,1,,73000,AZN,"Zoopark ,Dostluq kinoteatrı ,Nərimanov r.",40.40554735588255,Bakı,49.87506508827209,3001512,19 Oktyabr 2022 ,,
321,Köhnə tikili,5 / 5,70 m²,3,,120000,AZN,Nərimanov r.,40.39205366748811,Bakı,49.84065234661102,3001518,19 Oktyabr 2022 ,,
322,Köhnə tikili,4 / 9,58 m²,2,var,66000,AZN,"Xətai r.,Həzi Aslanov q.",40.39989258617802,Bakı,49.83979431395813,3001523,05 Noyabr 2022 ,,
323,Yeni tikili,5 / 20,60 m²,2,,118000,AZN,"Tibb Universiteti ,Nərimanov r.",40.40761426997893,Bakı,49.80840682983398,3001527,09 Dekabr 2022 ,,
324,Yeni tikili,12 / 16,100 m²,3,,225000,AZN,"Nəsimi bazarı ,Koala parkı ,Dostluq kinoteatrı ,Park Zorge ,Nəsimi r.",40.39338967551327,Bakı,49.84080791473389,3001529,19 Oktyabr 2022 ,,
325,Yeni tikili,17 / 18,65.1 m²,2,var,92000,AZN,Xırdalan,40.38855213843042,Xırdalan,49.87120270729065,3001532,19 Oktyabr 2022 ,,
326,Köhnə tikili,3 / 5,100 m²,4,,127000,AZN,"Səbail r.,Badamdar q.",40.40027766320492,Bakı,49.84006762504578,3001538,25 Sentyabr 2022 ,,
327,Yeni tikili,5 / 17,65 m²,3,,105000,AZN,"Əhmədli m.,Xətai r.,Əhmədli q.",40.37167523922052,Bakı,49.9533748626709,3001544,20 Noyabr 2022 ,,
328,Yeni tikili,12 / 18,110 m²,2,var,200000,AZN,Səbail r.,40.38264366149726,Bakı,49.87209320068359,3001554,19 Oktyabr 2022 ,,
329,Yeni tikili,16 / 17,64 m²,2,,109000,AZN,"Əhmədli m.,Xətai r.",40.38930339224178,Bakı,49.85948536585312,3001580,19 Oktyabr 2022 ,,
330,Yeni tikili,11 / 18,197 m²,4,,352000,AZN,"Sirk ,Azərbaycan Dillər Universiteti ,Zabitlər parkı ,Bakı Slavyan Universiteti ,Qış parkı ,Nəsimi r.",40.38213689298134,Bakı,49.83910691822636,3001585,19 Oktyabr 2022 ,,
331,Yeni tikili,7 / 16,60 m²,3,var,160000,AZN,"Bakı Asiya Universiteti ,8 Noyabr m.,Nəsimi r.",40.37738239264175,Bakı,49.82495069503784,3001587,07 Dekabr 2022 ,,
332,Yeni tikili,16 / 16,285 m²,5,,900000,AZN,"Bakı Musiqi Akademiyası ,Qış parkı ,Milli Konservatoriya ,Azərbaycan Dillər Universiteti ,Sirk ,Neft Akademiyası ,Bakı Slavyan Universiteti ,28 May m.,Nəsimi r.",40.38341187453192,Bakı,49.82710719108582,3001588,02 Yanvar 2023 ,,
333,Köhnə tikili,2 / 2,40 m²,2,,76000,AZN,"Sahil m.,Xalça Muzeyi ,Sahil bağı ,Malokan bağı ,Nizami kinoteatrı ,Nəsimi r.",40.37114232767102,Bakı,49.84382587048343,3001590,16 Noyabr 2022 ,,
334,Yeni tikili,6 / 12,66 m²,2,,76000,AZN,Xırdalan,40.45155242060076,Xırdalan,49.74373559311515,3001591,19 Oktyabr 2022 ,,
335,Yeni tikili,5 / 17,120 m²,3,yoxdur,238000,AZN,"Şərq bazarı ,28 May m.,Nərimanov r.",40.39989258617802,Bakı,49.83979431395813,3001592,09 Yanvar 2023 ,,
336,Köhnə tikili,2 / 5,180 m²,5,,270000,AZN,"Nəriman Nərimanov parkı ,Nəriman Nərimanov m.,Nərimanov r.",40.40481309592228,Bakı,49.86986696720127,3001600,19 Oktyabr 2022 ,,
337,Yeni tikili,12 / 17,150 m²,3,,290000,AZN,"Yasamal r.,Yeni Yasamal q.",40.38816806232006,Bakı,49.83243942260742,3001602,07 Fevral 2023 ,,
338,Yeni tikili,8 / 16,153 m²,4,,300000,AZN,"Nəriman Nərimanov m.,Nərimanov r.",40.40952590477563,Bakı,49.84445571899418,3001606,02 Noyabr 2022 ,,
339,Yeni tikili,14 / 15,150 m²,4,var,270000,AZN,Binəqədi r.,40.37533198376934,Bakı,49.81793688867354,3001609,19 Oktyabr 2022 ,,
340,Yeni tikili,12 / 14,100 m²,3,,235000,AZN,"Tibb Universiteti ,Park Zorge ,Nəsimi bazarı ,ASAN Xidmət №1 ,Nəsimi r.",40.38691775683309,Bakı,49.8079776763916,3001612,19 Oktyabr 2022 ,,
341,Yeni tikili,8 / 16,115 m²,3,yoxdur,224900,AZN,"Nəsimi bazarı ,Nəsimi r.",40.39587992159605,Bakı,49.84348571120761,3001613,07 Noyabr 2022 ,,
342,Köhnə tikili,1 / 5,33 m²,1,,63500,AZN,Yasamal r.,40.40928899571853,Bakı,49.80875551700596,3001616,19 Oktyabr 2022 ,,
343,Yeni tikili,16 / 16,96 m²,3,,158000,AZN,"Ukrayna dairəsi ,Həzi Aslanov m.,Xətai r.,Əhmədli q.",40.37824529313085,Bakı,49.9531289973145,3001617,19 Oktyabr 2022 ,,
344,Köhnə tikili,12 / 17,150 m²,3,var,290000,AZN,"İnşaatçılar m.,Yasamal r.",40.37024250177031,Bakı,49.97394200996779,3001621,01 Oktyabr 2022 ,,
345,Yeni tikili,10 / 20,115 m²,3,yoxdur,167000,AZN,"ASAN Xidmət №3 ,Yasamal bazarı ,Yasamal r.",40.39989258617802,Bakı,49.83979431395813,3001628,25 Oktyabr 2022 ,,
346,Köhnə tikili,2 / 3,65 m²,3,,130000,AZN,"Sabunçu r.,Bakıxanov q.",40.421,Bakı,49.963,3001630,19 Oktyabr 2022 ,,
347,Yeni tikili,7 / 17,65 m²,3,,105000,AZN,"Ukrayna dairəsi ,Əhmədli m.,Xətai r.",40.38010017605128,Bakı,49.95391138920345,3001632,07 Oktyabr 2022 ,,
348,Yeni tikili,4 / 16,190 m²,3,,270000,AZN,"Yasamal bazarı ,ASAN Xidmət №3 ,Yasamal r.",40.37649764183499,Bakı,49.84163403511051,3001633,19 Oktyabr 2022 ,,
349,Yeni tikili,11 / 19,128 m²,3,,232800,AZN,"Şah İsmayıl Xətai m.,Xətai r.",40.37862575802446,Bakı,49.83980533468834,3001634,05 Noyabr 2022 ,,
350,Köhnə tikili,2 / 5,30 m²,1,,73000,AZN,"Zoopark ,Dostluq kinoteatrı ,Koala parkı ,Nərimanov r.",40.39271146068456,Bakı,49.84660148620605,3001638,19 Oktyabr 2022 ,,
351,Yeni tikili,10 / 15,90 m²,2,var,148500,AZN,"Həzi Aslanov m.,Xətai r.",40.38816806232006,Bakı,49.83243942260742,3001642,19 Oktyabr 2022 ,,
352,Yeni tikili,3 / 17,140 m²,4,var,230000,AZN,Səbail r.,40.38264366149726,Bakı,49.87209320068359,3001644,19 Oktyabr 2022 ,,
353,Köhnə tikili,2 / 5,75 m²,3,,124900,AZN,Səbail r.,40.38816806232006,Bakı,49.83243942260742,3001646,02 Dekabr 2022 ,,
354,Yeni tikili,19 / 19,65 m²,3,var,82000,AZN,"Həzi Aslanov m.,Xətai r.,Həzi Aslanov q.",40.37742938831814,Bakı,49.80915784835819,3001647,14 Oktyabr 2022 ,,
355,Yeni tikili,1 / 18,79 m²,3,var,145500,AZN,"Şah İsmayıl Xətai m.,Xətai r.",40.36942330420567,Bakı,49.82101321220402,3001651,29 Oktyabr 2022 ,,
356,Yeni tikili,8 / 16,153 m²,4,var,300000,AZN,"Rəssamlıq Akademiyası ,Nəriman Nərimanov parkı ,Nəriman Nərimanov m.,Nərimanov r.",40.39298300258589,Bakı,49.95403544813546,3001653,19 Oktyabr 2022 ,,
357,Yeni tikili,16 / 17,100 m²,3,var,128999,AZN,"Neapol dairəsi ,Xətai r.",40.36942330420567,Bakı,49.82101321220402,3001655,10 Yanvar 2023 ,,
358,Yeni tikili,14 / 19,53 m²,2,,95000,AZN,"Xətai r.,Həzi Aslanov q.",40.35561987354004,Bakı,49.96058464050293,3001656,19 Oktyabr 2022 ,,
359,Yeni tikili,12 / 18,155 m²,3,var,290000,AZN,"İnşaatçılar m.,Yasamal r.",40.37024250177031,Bakı,49.97394200996779,3001658,15 Noyabr 2022 ,var,var
360,Yeni tikili,7 / 13,65 m²,3,,145000,AZN,"Səbail r.,Bayıl q.",40.40606433283491,Bakı,49.86231650326251,3001659,19 Oktyabr 2022 ,,
361,Yeni tikili,17 / 18,164 m²,4,var,205000,AZN,Səbail r.,40.38264366149726,Bakı,49.87209320068359,3001661,19 Oktyabr 2022 ,,
362,Yeni tikili,9 / 17,57 m²,1,,109000,AZN,"Qara Qarayev m.,Nizami r.,8-ci kilometr q.",40.41769792715831,Bakı,49.93168624379931,3001666,19 Oktyabr 2022 ,,
363,Yeni tikili,9 / 14,220 m²,4,,1700000,AZN,"Nizami kinoteatrı ,Sahil m.,Malokan bağı ,Sahil bağı ,Milli Konservatoriya ,Xalça Muzeyi ,Fontanlar bağı ,Səbail r.",40.37332095811318,Bakı,49.84202304948662,3001667,19 Oktyabr 2022 ,,
364,Yeni tikili,1 / 4,93 m²,3,,80000,AZN,Xırdalan,40.4609236054629,Xırdalan,49.72429275512695,3001668,19 Oktyabr 2022 ,,
365,Köhnə tikili,2 / 4,80 m²,2,,187000,AZN,"Prezident parkı ,Dövlət İdarəçilik Akademiyası ,Şəlalə parkı ,Axundov bağı ,Qubernator parkı ,Nərimanov heykəli ,İçəri Şəhər m.,İqsadiyyat Universiteti ,Səbail r.",40.3863784022024,Bakı,49.84768509864811,3001671,01 Oktyabr 2022 ,,
366,Yeni tikili,15 / 20,163 m²,3,,500000,AZN,"Yasamal r.,Yasamal q.",40.38341187453192,Bakı,49.82710719108582,3001676,02 Yanvar 2023 ,,
367,Yeni tikili,7 / 9,99.2 m²,2,,165000,AZN,"Cavanşir körpüsü ,Xətai r.",40.38006832851394,Bakı,49.86155787409055,3001681,19 Oktyabr 2022 ,,
368,Yeni tikili,10 / 18,90 m²,3,,183500,AZN,"Şah İsmayıl Xətai m.,Xətai r.",40.38816806232006,Bakı,49.83243942260742,3001685,19 Fevral 2023 ,,
369,Yeni tikili,27 / 27,176 m²,4,,329000,AZN,Yasamal r.,40.37024250177031,Bakı,49.97394200996779,3001686,17 Fevral 2023 ,,
370,Köhnə tikili,5 / 5,36 m²,1,,65000,AZN,"Xalqlar Dostluğu m.,Nizami r.,8-ci kilometr q.",40.4007647013091,Bakı,49.95284884852905,3001697,17 Oktyabr 2022 ,,
371,Yeni tikili,8 / 18,101 m²,3,,225000,AZN,"Şah İsmayıl Xətai m.,Xətai r.",40.3843596,Bakı,49.87381000000005,3001699,19 Oktyabr 2022 ,,
372,Yeni tikili,6 / 17,124 m²,3,,198500,AZN,"Tibb Universiteti ,Nəsimi r.",40.38264366149726,Bakı,49.87209320068359,3001701,15 Oktyabr 2022 ,,
373,Yeni tikili,4 / 11,140 m²,4,var,165000,AZN,Yasamal r.,40.3984164703747,Bakı,49.7900275322022,3001704,18 Noyabr 2022 ,,
374,Yeni tikili,10 / 15,195 m²,4,var,385000,AZN,"Zabitlər parkı ,Sirk ,Azərbaycan Dillər Universiteti ,Nəsimi r.",40.37024250177031,Bakı,49.97394200996779,3001705,18 Fevral 2023 ,var,var
375,Yeni tikili,15 / 18,145 m²,4,var,330000,AZN,"Nəsimi bazarı ,Tibb Universiteti ,Park Zorge ,ASAN Xidmət №1 ,Nəsimi r.",40.39816149998397,Bakı,49.84086155891422,3001709,04 Oktyabr 2022 ,var,var
376,Yeni tikili,2 / 17,118 m²,3,var,222300,AZN,"Ayna Sultanova heykəli ,Nərimanov r.",40.36942330420567,Bakı,49.82101321220402,3001721,19 Oktyabr 2022 ,yoxdur,var
377,Yeni tikili,23 / 27,145 m²,3,var,290000,AZN,Yasamal r.,40.37024250177031,Bakı,49.97394200996779,3001728,13 Yanvar 2023 ,var,var
378,Yeni tikili,7 / 18,145 m²,4,yoxdur,303000,AZN,"Azadlıq Prospekti m.,Binəqədi r.",40.39816149998397,Bakı,49.84086155891422,3001729,Dünən 20:37 ,,
379,Yeni tikili,1 / 16,35 m²,1,,40000,AZN,"Yasamal r.,Yeni Yasamal q.",40.394,Bakı,49.795,3001730,04 Oktyabr 2022 ,,
380,Yeni tikili,14 / 18,63 m²,2,,106000,AZN,"ASAN Xidmət №1 ,Tibb Universiteti ,Nəsimi bazarı ,Nəsimi r.",40.39989258617802,Bakı,49.83979431395813,3001732,03 Yanvar 2023 ,,
381,Köhnə tikili,3 / 5,31 m²,1,,72000,AZN,"Yasamal bazarı ,İnşaatçılar m.,Yasamal r.",40.3839039,Bakı,49.79972640000005,3001733,19 Oktyabr 2022 ,,
382,Yeni tikili,11 / 22,125 m²,3,,168000,AZN,Yasamal r.,40.41287649131505,Bakı,49.80108482569231,3001737,19 Oktyabr 2022 ,,
383,Yeni tikili,16 / 17,100 m²,3,var,129000,AZN,"Həzi Aslanov m.,Xətai r.,Həzi Aslanov q.",40.37742938831814,Bakı,49.80915784835819,3001738,02 Noyabr 2022 ,,
384,Yeni tikili,8 / 17,70 m²,3,,110000,AZN,"Ukrayna dairəsi ,Əhmədli m.,Xətai r.",40.38816806232006,Bakı,49.83243942260742,3001744,09 Fevral 2023 ,,
385,Yeni tikili,3 / 18,96 m²,3,,152000,AZN,"Yasamal r.,Yeni Yasamal q.",40.394,Bakı,49.795,3001754,19 Oktyabr 2022 ,,
386,Köhnə tikili,4 / 5,32 m²,1,,75000,AZN,"Yasamal bazarı ,ASAN Xidmət №3 ,Yasamal r.,Yasamal q.",40.38168530806062,Bakı,49.80463163411539,3001757,19 Oktyabr 2022 ,,
387,Köhnə tikili,1 / 9,105 m²,4,,136000,AZN,Nizami r.,40.38816806232006,Bakı,49.83243942260742,3001761,07 Dekabr 2022 ,,
388,Yeni tikili,2 / 16,50.4 m²,2,var,70000,AZN,"Suraxanı r.,Yeni Günəşli q.",40.40554735588255,Bakı,49.87506508827209,3001763,03 Oktyabr 2022 ,,
389,Yeni tikili,16 / 17,115 m²,3,,275000,AZN,Nərimanov r.,40.4089166,Bakı,49.86399959999994,3001769,19 Oktyabr 2022 ,,
390,Köhnə tikili,4 / 5,50 m²,2,,86900,AZN,"Tibb Universiteti ,Nəsimi r.",40.36942330420567,Bakı,49.82101321220402,3001772,19 Oktyabr 2022 ,,
391,Köhnə tikili,9 / 9,70 m²,3,,105000,AZN,"Əhmədli m.,Xətai r.,Əhmədli q.",40.3816452,Bakı,49.95845050000003,3001774,19 Oktyabr 2022 ,,
392,Yeni tikili,8 / 12,85 m²,3,var,123500,AZN,Xətai r.,40.38816806232006,Bakı,49.83243942260742,3001779,20 Noyabr 2022 ,,
393,Yeni tikili,12 / 22,67 m²,2,,99000,AZN,"Yasamal r.,Yeni Yasamal q.",40.40165027405231,Bakı,49.86080646514893,3001796,19 Oktyabr 2022 ,,
394,Yeni tikili,7 / 19,55 m²,2,var,115000,AZN,"Binəqədi r.,9-cu mikrorayon q.",40.40011603328774,Bakı,49.83917601637808,3001800,28 Sentyabr 2022 ,,
395,Köhnə tikili,9 / 9,75 m²,2,var,144500,AZN,"Gənclik m.,Respublika stadionu ,Nərimanov r.",40.40011603328774,Bakı,49.83917601637808,3001802,19 Oktyabr 2022 ,,
396,Yeni tikili,15 / 17,123 m²,2,,230000,AZN,"Ağ şəhər ,ASAN Xidmət №2 ,Xətai r.,Ağ şəhər q.",40.38302680638953,Bakı,49.88146817193602,3001815,19 Oktyabr 2022 ,,
397,Yeni tikili,16 / 22,120 m²,3,,235000,AZN,Yasamal r.,40.38341187453192,Bakı,49.82710719108582,3001819,19 Oktyabr 2022 ,,
398,Yeni tikili,7 / 17,34 m²,1,,69500,AZN,"Qara Qarayev m.,Nizami r.",40.38873191798482,Bakı,49.95395421981815,3001820,08 Oktyabr 2022 ,,
399,Köhnə tikili,4 / 5,58 m²,2,,85000,AZN,"Memar Əcəmi m.,Nəsimi r.,4-cü mikrorayon q.",40.37224740672736,Bakı,49.81613159179691,3001826,19 Oktyabr 2022 ,,
400,Yeni tikili,4 / 15,158 m²,3,,385000,AZN,"Bakı Asiya Universiteti ,8 Noyabr m.,Nəsimi r.",40.38341187453192,Bakı,49.82710719108582,3001829,20 Noyabr 2022 ,,
401,Yeni tikili,3 / 4,73 m²,2,,77000,AZN,Xətai r.,40.39816149998397,Bakı,49.84086155891422,3001834,05 Dekabr 2022 ,,
402,Yeni tikili,7 / 17,100 m²,2,,170000,AZN,"Nəsimi bazarı ,Koala parkı ,Zoopark ,Dostluq kinoteatrı ,Nəsimi r.",40.42028115716548,Bakı,49.81340365102955,3001841,19 Oktyabr 2022 ,,
403,Köhnə tikili,5 / 9,90 m²,3,,160000,AZN,"Ayna Sultanova heykəli ,Nərimanov r.",40.39205366748811,Bakı,49.84065234661102,3001843,19 Oktyabr 2022 ,,
404,Yeni tikili,4 / 19,157 m²,3,,210000,AZN,"Xətai r.,Əhmədli q.",40.38975197879888,Bakı,49.96666163237185,3001848,19 Oktyabr 2022 ,,
405,Yeni tikili,2 / 7,160 m²,4,,540000,AZN,"Ağ şəhər ,Xətai r.,Ağ şəhər q.",40.40554735588255,Bakı,49.87506508827209,3001849,19 Yanvar 2023 ,,
406,Yeni tikili,10 / 16,125 m²,3,,143000,AZN,"İnşaatçılar m.,Yasamal r.",40.38816806232006,Bakı,49.83243942260742,3001851,29 Noyabr 2022 ,,
407,Köhnə tikili,4 / 5,110 m²,3,,150000,AZN,"Dostluq kinoteatrı ,Koala parkı ,Zoopark ,Nəsimi r.",40.3769019868296,Bakı,49.84521518028816,3001854,04 Noyabr 2022 ,,
408,Köhnə tikili,3 / 5,35 m²,1,,75000,AZN,"Yasamal bazarı ,Yasamal r.,Yasamal q.",40.40210780478213,Bakı,49.85758781433109,3001855,29 Oktyabr 2022 ,,
409,Yeni tikili,11 / 16,77 m²,1,,162000,AZN,"Bayıl parkı ,Səbail r.,Bayıl q.",40.3651072257085,Bakı,49.81950849294662,3001859,03 Yanvar 2023 ,,
410,Yeni tikili,9 / 9,65 m²,2,,75000,AZN,Xırdalan,40.45511190000001,Xırdalan,49.74459389999993,3001864,19 Oktyabr 2022 ,,
411,Yeni tikili,8 / 18,65 m²,2,,110000,AZN,"Neftçilər m.,Nizami r.",40.38930339224178,Bakı,49.85948536585312,3001866,04 Noyabr 2022 ,,
412,Köhnə tikili,2 / 5,45 m²,2,,84000,AZN,Nərimanov r.,40.38816806232006,Bakı,49.83243942260742,3001868,24 Noyabr 2022 ,,
413,Yeni tikili,6 / 16,195 m²,4,,241000,AZN,"Elmlər Akademiyası m.,Hüseyn Cavid parkı ,Bakı Dövlət Universiteti ,Texniki Universiteti ,Yasamal r.",40.37316286463371,Bakı,49.81432914733887,3001873,19 Oktyabr 2022 ,,
414,Yeni tikili,11 / 17,227 m²,4,,590000,AZN,"Bakı Slavyan Universiteti ,Azərbaycan Dillər Universiteti ,28 May m.,Neft Akademiyası ,Nəsimi r.",40.38341187453192,Bakı,49.82710719108582,3001874,04 Noyabr 2022 ,,
415,Köhnə tikili,4 / 5,30 m²,1,,74900,AZN,"Elmlər Akademiyası m.,Yasamal r.",40.38025799599681,Bakı,49.81127458502669,3001878,19 Oktyabr 2022 ,,
416,Köhnə tikili,4 / 5,78 m²,3,,115000,AZN,"20 Yanvar m.,Memar Əcəmi m.,Nəsimi r.,3-cü mikrorayon q.",40.39989258617802,Bakı,49.83979431395813,3001883,30 Oktyabr 2022 ,,
417,Köhnə tikili,8 / 9,102 m²,5,var,145000,AZN,"Neapol dairəsi ,Suraxanı r.,Yeni Günəşli q.",40.38,Bakı,49.965,3001891,19 Oktyabr 2022 ,,
418,Köhnə tikili,5 / 5,69 m²,3,,80000,AZN,Mingəçevir,40.76719206327213,Mingəçevir,47.04569144439699,3001892,19 Oktyabr 2022 ,,
419,Yeni tikili,16 / 17,85 m²,3,,102000,AZN,"Neapol dairəsi ,Xətai r.",40.38658256283964,Bakı,49.96418925507879,3001894,19 Oktyabr 2022 ,,
420,Yeni tikili,7 / 10,45 m²,2,var,55000,AZN,"Abşeron r.,Masazır q.",40.36942330420567,Bakı,49.82101321220402,3001895,28 Oktyabr 2022 ,,
421,Köhnə tikili,5 / 10,75 m²,3,var,155000,AZN,Nərimanov r.,40.38816806232006,Bakı,49.83243942260742,3001899,19 Dekabr 2022 ,,
422,Köhnə tikili,6 / 9,75 m²,3,,120000,AZN,"Azadlıq Prospekti m.,Binəqədi r.,8-ci mikrorayon q.",40.42574961170259,Bakı,49.83754382800294,3001901,11 Oktyabr 2022 ,,
423,Yeni tikili,4 / 16,115 m²,3,var,235000,AZN,"Bakı Slavyan Universiteti ,28 May m.,Azərbaycan Dillər Universiteti ,Neft Akademiyası ,Nərimanov r.",40.38264366149726,Bakı,49.84677314758301,3001907,19 Oktyabr 2022 ,,
424,Yeni tikili,4 / 17,140 m²,4,,310000,AZN,"Qara Qarayev m.,Nizami r.,8-ci kilometr q.",40.41536798161938,Bakı,49.92963279730919,3001908,19 Oktyabr 2022 ,,
425,Yeni tikili,13 / 16,160 m²,3,,224500,AZN,Səbail r.,40.37024250177031,Bakı,49.97394200996779,3001909,10 Oktyabr 2022 ,,
426,Köhnə tikili,4 / 5,70 m²,3,,115000,AZN,"Memar Əcəmi m.,Nəsimi r.",40.41062057717524,Bakı,49.81355667114258,3001911,19 Oktyabr 2022 ,,
427,Yeni tikili,3 / 17,65 m²,2,,112000,AZN,"Bayıl parkı ,Səbail r.,Bayıl q.",40.3497833,Bakı,49.83144970000001,3001913,30 Oktyabr 2022 ,,
428,Köhnə tikili,4 / 5,58 m²,2,,85000,AZN,"Memar Əcəmi m.,Nəsimi r.,4-cü mikrorayon q.",40.39197603929571,Bakı,49.80684041976929,3001917,19 Oktyabr 2022 ,,
429,Yeni tikili,2 / 15,155 m²,3,,295000,AZN,"Nəriman Nərimanov m.,Nəriman Nərimanov parkı ,Nərimanov r.",40.3863784022024,Bakı,49.84768509864811,3001918,10 Dekabr 2022 ,,
430,Köhnə tikili,2 / 5,50 m²,2,,90000,AZN,"Yasamal bazarı ,Yasamal r.",40.38167334161176,Bakı,49.80942878741846,3001924,27 Sentyabr 2022 ,,
431,Yeni tikili,14 / 17,155 m²,4,,380000,AZN,"Yasamal bazarı ,Yasamal r.,Elmlər Akademiyası m.",40.3839039,Bakı,49.79972640000005,3001927,19 Oktyabr 2022 ,,
432,Yeni tikili,7 / 9,69 m²,2,,41400,AZN,"Abşeron r.,Masazır q.",40.40687051020995,Bakı,49.81628229163361,3001930,19 Oktyabr 2022 ,,
433,Köhnə tikili,3 / 5,200 m²,4,,1200000,AZN,"Pedaqoji Universiteti ,Sahil bağı ,Malokan bağı ,Sahil m.,Azadlıq meydanı ,28 May m.,Nəsimi r.",40.3863784022024,Bakı,49.84768509864811,3001934,19 Oktyabr 2022 ,,
434,Yeni tikili,9 / 11,161 m²,3,var,300000,AZN,"Tibb Universiteti ,Nəsimi r.",40.39232579999999,Bakı,49.82880550000004,3001939,19 Oktyabr 2022 ,,
435,Yeni tikili,4 / 10,105 m²,3,,163000,AZN,"Neftçi bazası ,ASAN Xidmət №1 ,Nəsimi r.",40.39045008382347,Bakı,49.830508675731,3001940,19 Oktyabr 2022 ,,
436,Yeni tikili,7 / 16,85 m²,2,,137000,AZN,Xətai r.,40.37024250177031,Bakı,49.97394200996779,3001946,24 Noyabr 2022 ,,
437,Yeni tikili,7 / 19,55 m²,2,var,115000,AZN,"Binəqədi r.,9-cu mikrorayon q.",40.42028115716548,Bakı,49.81340365102955,3001950,28 Sentyabr 2022 ,,
438,Yeni tikili,6 / 18,98 m²,3,var,225000,AZN,Nərimanov r.,40.4089166,Bakı,49.86399959999994,3001953,19 Oktyabr 2022 ,,
439,Yeni tikili,2 / 17,95 m²,2,,149000,AZN,"Zabitlər parkı ,Sirk ,Azərbaycan Dillər Universiteti ,Nəsimi r.",40.39045008382347,Bakı,49.830508675731,3001956,19 Oktyabr 2022 ,,
440,Yeni tikili,11 / 14,65 m²,2,,110000,AZN,"Neftçilər m.,Nizami r.,8-ci kilometr q.",40.41913797142315,Bakı,49.92514979797704,3001957,20 Oktyabr 2022 ,,
441,Yeni tikili,5 / 23,140 m²,3,var,227000,AZN,"İnşaatçılar m.,Yasamal r.",40.38816806232006,Bakı,49.83243942260742,3001958,03 Yanvar 2023 ,,
442,Yeni tikili,10 / 17,80 m²,2,,125000,AZN,"Ukrayna dairəsi ,Əhmədli m.,Həzi Aslanov m.,Xətai r.",40.37953542663661,Bakı,49.95334847139497,3001960,19 Oktyabr 2022 ,,
443,Köhnə tikili,1 / 5,50 m²,2,,83000,AZN,Nizami r.,40.39914657038314,Bakı,49.93961579889925,3001969,19 Oktyabr 2022 ,,
444,Yeni tikili,7 / 18,175 m²,4,,425000,AZN,"Nəriman Nərimanov m.,Nəriman Nərimanov parkı ,Nərimanov r.",40.40153905225159,Bakı,49.86872501952925,3001971,19 Oktyabr 2022 ,,
445,Yeni tikili,18 / 21,95 m²,3,,139000,AZN,"Yasamal bazarı ,İnşaatçılar m.,Yasamal r.",40.38816806232006,Bakı,49.83243942260742,3001978,29 Noyabr 2022 ,,
446,Köhnə tikili,2 / 5,50 m²,2,,86000,AZN,"Memar Əcəmi m.,Nəsimi r.,4-cü mikrorayon q.",40.37649764183499,Bakı,49.84163403511051,3001985,19 Oktyabr 2022 ,,
447,Köhnə tikili,1 / 4,20 m²,1,,70000,AZN,"Axundov bağı ,Dövlət İdarəçilik Akademiyası ,İqsadiyyat Universiteti ,İçəri Şəhər m.,Prezident parkı ,Qubernator parkı ,M.Ə.Sabir parkı ,Nərimanov heykəli ,Sovetski ,Səbail r.",40.36774541823399,Bakı,49.82959820135131,3001990,19 Oktyabr 2022 ,,
448,Yeni tikili,3 / 12,60 m²,2,var,88000,AZN,"Yasamal bazarı ,İnşaatçılar m.,Yasamal r.",40.38816806232006,Bakı,49.83243942260742,3001993,31 Oktyabr 2022 ,,
449,Yeni tikili,3 / 4,86 m²,3,,60000,AZN,Xaçmaz r.,41.46296008472915,Xaçmaz,48.80057508346564,3001995,19 Oktyabr 2022 ,,
450,Köhnə tikili,6 / 10,55 m²,2,var,92000,AZN,"Xalqlar Dostluğu m.,Xətai r.,Əhmədli q.",40.3930018894103,Bakı,49.95128363653,3001999,19 Oktyabr 2022 ,,
451,Yeni tikili,13 / 16,71 m²,2,,142000,AZN,"Neftçilər m.,Nizami r.,8-ci kilometr q.",40.41913797142315,Bakı,49.92514979797704,3002000,19 Oktyabr 2022 ,,
452,Yeni tikili,11 / 17,68 m²,2,var,169000,AZN,"Şərq bazarı ,Nərimanov r.",40.40165844427115,Bakı,49.86887991428379,3002003,19 Oktyabr 2022 ,,
453,Yeni tikili,10 / 20,95 m²,2,yoxdur,147000,AZN,"Binəqədi r.,8-ci mikrorayon q.",40.39816149998397,Bakı,49.84086155891422,3002006,26 Oktyabr 2022 ,,
454,Köhnə tikili,4 / 4,60 m²,2,,135000,AZN,"Pedaqoji Universiteti ,Sahil bağı ,Malokan bağı ,Nizami kinoteatrı ,Sahil m.,Milli Konservatoriya ,Neft Akademiyası ,28 May m.,Səbail r.",40.3743521239661,Bakı,49.84840929508209,3002012,19 Oktyabr 2022 ,,
455,Yeni tikili,11 / 16,170 m²,4,,450000,AZN,"Tibb Universiteti ,Nəsimi r.",40.39232579999999,Bakı,49.82880550000004,3002016,19 Oktyabr 2022 ,,
456,Köhnə tikili,5 / 5,90 m²,4,,113000,AZN,"Ukrayna dairəsi ,Həzi Aslanov m.,Xətai r.,Həzi Aslanov q.",40.37772828625993,Bakı,49.95419860372367,3002017,30 Sentyabr 2022 ,,
457,Yeni tikili,5 / 16,70 m²,2,,65500,AZN,Abşeron r.,40.45511190000001,Xırdalan,49.74459389999993,3002018,19 Oktyabr 2022 ,,
458,Yeni tikili,13 / 22,63 m²,2,,98000,AZN,"Yasamal r.,Yeni Yasamal q.",40.39816149998397,Bakı,49.84086155891422,3002029,03 Yanvar 2023 ,,
459,Yeni tikili,1 / 7,115 m²,3,,133000,AZN,"Yasamal r.,Yeni Yasamal q.",40.394,Bakı,49.795,3002040,19 Oktyabr 2022 ,,
460,Köhnə tikili,8 / 9,76 m²,3,,105000,AZN,"Həzi Aslanov m.,Xətai r.,Köhnə Günəşli q.",40.3764811,Bakı,49.96064290000004,3002053,19 Oktyabr 2022 ,,
461,Köhnə tikili,7 / 9,80 m²,3,,102000,AZN,"Suraxanı r.,Yeni Günəşli q.",40.38400961271048,Bakı,49.97985230148667,3002056,19 Oktyabr 2022 ,,
462,Köhnə tikili,9 / 9,55 m²,2,,75000,AZN,"Suraxanı r.,Yeni Günəşli q.",40.38399034984512,Bakı,49.97984098946507,3002061,19 Oktyabr 2022 ,,
463,Köhnə tikili,5 / 9,76 m²,3,,185000,AZN,"İnşaatçılar m.,Yasamal r.",40.37620916175648,Bakı,49.81580107043555,3002062,19 Oktyabr 2022 ,,
464,Yeni tikili,3 / 17,110 m²,3,var,149000,AZN,Xətai r.,40.39989258617802,Bakı,49.83979431395813,3002063,19 Oktyabr 2022 ,,
465,Yeni tikili,14 / 17,45 m²,2,,55000,AZN,Sumqayıt,40.589694,Sumqayıt,49.66787920000002,3002067,29 Sentyabr 2022 ,,
466,Köhnə tikili,4 / 5,55 m²,2,,78000,AZN,"Nəsimi m.,Zərifə Əliyeva adına park ,Binəqədi r.,6-cı mikrorayon q.",40.42462293142408,Bakı,49.82538619166712,3002069,19 Oktyabr 2022 ,,
467,Yeni tikili,2 / 17,58 m²,2,,85000,AZN,"Yasamal r.,Yeni Yasamal q.",40.38654645788341,Bakı,49.78673223946408,3002070,28 Sentyabr 2022 ,,
468,Yeni tikili,13 / 16,99 m²,3,,112000,AZN,Xırdalan,40.45353842079265,Xırdalan,49.73976326670091,3002071,19 Oktyabr 2022 ,,
469,Köhnə tikili,5 / 9,100 m²,3,,160000,AZN,"Memar Əcəmi m.,Nəsimi r.",40.37620916175648,Bakı,49.81580107043555,3002072,19 Oktyabr 2022 ,,
470,Yeni tikili,11 / 17,82 m²,3,,150000,AZN,"Azadlıq Prospekti m.,Binəqədi r.,8-ci mikrorayon q.",40.42074076849563,Bakı,49.84279816021195,3002076,19 Oktyabr 2022 ,,
471,Köhnə tikili,4 / 9,110 m²,5,,155000,AZN,"Xalqlar Dostluğu m.,Xətai r.,Əhmədli q.",40.39307451378475,Bakı,49.95714039845108,3002082,20 Dekabr 2022 ,,
472,Yeni tikili,4 / 22,72 m²,2,,75000,AZN,"Yasamal r.,Yeni Yasamal q.",40.39231923694332,Bakı,49.79493141174316,3002083,19 Oktyabr 2022 ,,
473,Yeni tikili,12 / 15,137 m²,3,,260000,AZN,"Zabitlər parkı ,Nizami m.,Sirk ,Nəsimi r.,Kubinka q.",40.3823534,Bakı,49.83293920000006,3002087,19 Oktyabr 2022 ,,
474,Yeni tikili,8 / 19,104 m²,2,,145000,AZN,"İnşaatçılar m.,Yasamal r.",40.38812071236754,Bakı,49.80290213547369,3002096,19 Oktyabr 2022 ,,
475,Yeni tikili,11 / 16,113 m²,3,,180000,AZN,"İnşaatçılar m.,Yasamal r.,Yasamal q.",40.3903785129407,Bakı,49.81005907058716,3002098,19 Oktyabr 2022 ,,
476,Yeni tikili,6 / 6,75 m²,3,var,68000,AZN,"Abşeron r.,Masazır q.",40.4862557,Bakı,49.75753099999997,3002102,19 Oktyabr 2022 ,,
477,Köhnə tikili,4 / 9,68 m²,4,,135000,AZN,"Yasamal bazarı ,İnşaatçılar m.,Yasamal r.",40.3839039,Bakı,49.79972640000005,3002103,19 Oktyabr 2022 ,,
478,Yeni tikili,5 / 16,138 m²,3,,240000,AZN,"28 May m.,Neft Akademiyası ,Bakı Slavyan Universiteti ,Bakı Musiqi Akademiyası ,Nəsimi r.",40.38128168459657,Bakı,49.84748547094178,3002108,19 Oktyabr 2022 ,,
479,Yeni tikili,10 / 16,130 m²,3,var,220000,AZN,"ASAN Xidmət №1 ,Neftçi bazası ,Tibb Universiteti ,Nəsimi r.",40.39898672984681,Bakı,49.83501434326172,3002113,19 Oktyabr 2022 ,,
480,Yeni tikili,15 / 17,95 m²,3,,175000,AZN,"Qara Qarayev m.,Nizami r.",40.41794246852393,Bakı,49.93296829849668,3002117,19 Oktyabr 2022 ,,
481,Köhnə tikili,4 / 5,70 m²,3,,115000,AZN,"Memar Əcəmi m.,Nəsimi r.,3-cü mikrorayon q.",40.4157710168948,Bakı,49.81499865115581,3002118,02 Noyabr 2022 ,,
482,Yeni tikili,8 / 20,107 m²,2,,145000,AZN,"Yasamal bazarı ,İnşaatçılar m.,Yasamal r.,Yasamal q.",40.37742938831814,Bakı,49.80915784835819,3002130,20 Oktyabr 2022 ,,
483,Yeni tikili,11 / 18,115 m²,3,var,180000,AZN,"İnşaatçılar m.,Yasamal r.,Yasamal q.",40.42028115716548,Bakı,49.81340365102955,3002131,20 Oktyabr 2022 ,,
484,Köhnə tikili,3 / 5,70 m²,2,,145000,AZN,"Space TV ,Texniki Universiteti ,Yasamal r.",40.36642741921034,Bakı,49.81780529022217,3002134,20 Oktyabr 2022 ,,
485,Yeni tikili,5 / 7,310 m²,7,,250000,AZN,Səbail r.,40.33848769386648,Bakı,49.83338988626268,3002148,20 Oktyabr 2022 ,,
486,Köhnə tikili,4 / 5,48 m²,2,,85000,AZN,Nizami r.,40.4087847,Bakı,49.92876260000003,3002150,20 Oktyabr 2022 ,,
487,Köhnə tikili,1 / 5,50 m²,1,var,75000,AZN,"Qara Qarayev m.,Nizami r.,8-ci kilometr q.",40.41762961207698,Bakı,49.93444455935991,3002151,05 Fevral 2023 ,,
488,Yeni tikili,10 / 17,90 m²,3,var,147000,AZN,"Xətai r.,Həzi Aslanov q.",40.3807186,Bakı,49.92525120000005,3002162,07 Oktyabr 2022 ,,
489,Köhnə tikili,3 / 4,45 m²,1,,45000,AZN,"Suraxanı r.,Bülbülə q.",40.4365714,Bakı,49.9688673,3002163,20 Oktyabr 2022 ,,
490,Köhnə tikili,5 / 5,85 m²,4,,116000,AZN,"Əhmədli m.,Xətai r.,Əhmədli q.",40.38525881895442,Bakı,49.95380401611328,3002169,20 Oktyabr 2022 ,,
491,Yeni tikili,16 / 16,75 m²,2,var,140000,AZN,"20 Yanvar m.,Yasamal r.",40.39790543366799,Bakı,49.80824704593351,3002172,12 Dekabr 2022 ,,
492,Köhnə tikili,6 / 9,95 m²,4,,120000,AZN,"Binəqədi r.,Biləcəri q.",40.440334,Bakı,49.80566169999997,3002175,20 Oktyabr 2022 ,,
493,Köhnə tikili,1 / 9,65 m²,2,,72000,AZN,"Həzi Aslanov m.,Xətai r.,Köhnə Günəşli q.",40.3764811,Bakı,49.96064290000004,3002200,20 Oktyabr 2022 ,,
494,Köhnə tikili,6 / 9,80 m²,3,,107500,AZN,"Xətai r.,Əhmədli q.",40.3744844328779,Bakı,49.96192990739457,3002222,19 Noyabr 2022 ,,
495,Yeni tikili,7 / 21,176 m²,4,,140000,AZN,Yasamal r.,40.41220705044221,Bakı,49.80049887619634,3002223,20 Oktyabr 2022 ,,
496,Yeni tikili,14 / 16,68 m²,2,,82000,AZN,Xırdalan,40.45248312837339,Xırdalan,49.74206189468987,3002243,20 Oktyabr 2022 ,,
497,Köhnə tikili,1 / 9,85 m²,3,,94000,AZN,"Binəqədi r.,Biləcəri q.",40.44106188736331,Bakı,49.81175374928345,3002248,16 Oktyabr 2022 ,,
498,Yeni tikili,18 / 27,150 m²,3,var,222000,AZN,"İnşaatçılar m.,Yasamal r.",40.39816149998397,Bakı,49.84086155891422,3002259,26 Dekabr 2022 ,yoxdur,var
499,Yeni tikili,4 / 17,58 m²,2,,86000,AZN,"Yasamal r.,Yeni Yasamal q.",40.37224740672736,Bakı,49.81613159179691,3002275,26 Sentyabr 2022 ,,
500,Yeni tikili,11 / 16,63 m²,2,var,155000,AZN,"Nəsimi bazarı ,ASAN Xidmət №1 ,Nəsimi r.",40.37738239264175,Bakı,49.82495069503784,3002285,20 Oktyabr 2022 ,,
501,Yeni tikili,3 / 16,127 m²,3,,162000,AZN,"Yasamal r.,Yeni Yasamal q.",40.38499730777751,Bakı,49.83810424804688,3002287,05 Oktyabr 2022 ,,
502,Yeni tikili,10 / 21,53 m²,1,,85000,AZN,"Şah İsmayıl Xətai m.,Xətai r.",40.40554735588255,Bakı,49.87506508827209,3002288,20 Oktyabr 2022 ,,
503,Yeni tikili,8 / 22,58 m²,2,,118000,AZN,"Sabunçu r.,Bakıxanov q.",40.41694861425131,Bakı,49.96772068786619,3002296,20 Oktyabr 2022 ,,
504,Yeni tikili,19 / 20,71 m²,2,,78000,AZN,"Əhmədli m.,Xətai r.",40.39026819642278,Bakı,49.95772004127506,3002307,20 Oktyabr 2022 ,,
505,Yeni tikili,5 / 7,43.1 m²,1,,32000,AZN,Xırdalan,40.46485203297866,Xırdalan,49.73392412350091,3002309,05 Oktyabr 2022 ,,
506,Köhnə tikili,2 / 5,36 m²,1,,63000,AZN,"20 Yanvar m.,Memar Əcəmi m.,Nəsimi r.,1-ci mikrorayon q.",40.39197603929571,Bakı,49.80684041976929,3002324,20 Oktyabr 2022 ,,
507,Yeni tikili,3 / 11,85 m²,3,var,88000,AZN,Xırdalan,40.45511190000001,Xırdalan,49.74459389999993,3002330,20 Oktyabr 2022 ,,
508,Köhnə tikili,2 / 5,40 m²,2,,76000,AZN,"Memar Əcəmi m.,Nəsimi r.,4-cü mikrorayon q.",40.39197603929571,Bakı,49.80684041976929,3002337,20 Oktyabr 2022 ,,
509,Yeni tikili,2 / 13,95 m²,3,var,135000,AZN,"Yasamal r.,Yeni Yasamal q.",40.4053327515815,Bakı,49.81380344106,3002338,20 Oktyabr 2022 ,,
510,Yeni tikili,16 / 19,99 m²,3,yoxdur,170000,AZN,Xətai r.,40.40152503521376,Bakı,49.86131862059725,3002344,09 Yanvar 2023 ,,
511,Yeni tikili,13 / 16,135 m²,3,,168000,AZN,"Suraxanı r.,Qaraçuxur q.",40.37533198376934,Bakı,49.81793688867354,3002347,24 Noyabr 2022 ,,
512,Yeni tikili,9 / 9,85 m²,3,var,119900,AZN,"Yasamal r.,Yeni Yasamal q.",40.3863886681378,Bakı,49.80817391355895,3002351,20 Oktyabr 2022 ,,
513,Yeni tikili,4 / 10,73 m²,2,,150000,AZN,Binəqədi r.,40.4750302,Bakı,49.82237950000001,3002354,20 Oktyabr 2022 ,,
514,Yeni tikili,11 / 16,113 m²,3,,176000,AZN,"İnşaatçılar m.,Yasamal r.,Yasamal q.",40.38816806232006,Bakı,49.83243942260742,3002364,19 Noyabr 2022 ,,
515,Köhnə tikili,1 / 9,48 m²,2,,56000,AZN,"Xalqlar Dostluğu m.,Suraxanı r.,Yeni Günəşli q.",40.39761835243856,Bakı,49.95259746551513,3002371,20 Oktyabr 2022 ,,
516,Köhnə tikili,3 / 3,65 m²,3,,197000,AZN,"Fontanlar bağı ,Xalça Muzeyi ,Sahil m.,Azərbaycan kinoteatrı ,Səbail r.",40.38499730777751,Bakı,49.83810424804688,3002373,03 Oktyabr 2022 ,,
517,Yeni tikili,14 / 16,71 m²,1,,85200,AZN,"Avtovağzal m.,Binəqədi r.",40.37620916175648,Bakı,49.81580107043555,3002386,20 Oktyabr 2022 ,,
518,Yeni tikili,15 / 15,110 m²,3,,240000,AZN,"İnşaatçılar m.,Yasamal r.",40.39414959485713,Bakı,49.7993946075439,3002393,20 Oktyabr 2022 ,,
519,Yeni tikili,3 / 5,80 m²,3,,155000,AZN,"Azadlıq Prospekti m.,Binəqədi r.,8-ci mikrorayon q.",40.40554735588255,Bakı,49.87506508827209,3002397,20 Oktyabr 2022 ,,
520,Yeni tikili,4 / 16,159 m²,3,,329000,AZN,"Bakı Asiya Universiteti ,8 Noyabr m.,Nəsimi r.",40.40111918807422,Bakı,49.81857033611212,3002404,20 Oktyabr 2022 ,,
521,Yeni tikili,2 / 17,96 m²,3,,145000,AZN,"Yasamal r.,Yeni Yasamal q.",40.38878094868915,Bakı,49.78639125823975,3002405,20 Oktyabr 2022 ,,
522,Köhnə tikili,5 / 5,65 m²,2,,90000,AZN,"Həzi Aslanov m.,Xətai r.,Əhmədli q.",40.38499730777751,Bakı,49.83810424804688,3002408,20 Oktyabr 2022 ,,
523,Yeni tikili,8 / 17,70 m²,3,,105000,AZN,"Əhmədli m.,Xətai r.",40.41932422288878,Bakı,49.92522239685059,3002412,03 Noyabr 2022 ,,
524,Köhnə tikili,10 / 10,105 m²,3,,170000,AZN,"Azərbaycan turizm institutu ,Respublika stadionu ,Gənclik m.,Nərimanov r.",40.40096600048884,Bakı,49.85971715657594,3002417,20 Oktyabr 2022 ,,
525,Yeni tikili,3 / 15,136 m²,3,var,272000,AZN,"Dövlət Statistika Komitəsi ,M.Hüseynzadə parkı ,Nizami m.,Yasamal r.",40.38393649913722,Bakı,49.82891160497888,3002419,20 Oktyabr 2022 ,,
526,Yeni tikili,11 / 17,180 m²,4,,400000,AZN,"Azərbaycan turizm institutu ,Gənclik m.,Nərimanov r.",40.3973891683445,Bakı,49.85952919933808,3002421,06 Oktyabr 2022 ,,
527,Yeni tikili,16 / 16,55 m²,2,var,85000,AZN,"Həzi Aslanov m.,Xətai r.,Həzi Aslanov q.",40.37309747519567,Bakı,49.95346069335938,3002424,20 Oktyabr 2022 ,,
528,Köhnə tikili,4 / 5,130 m²,3,,250000,AZN,"Fontanlar bağı ,Xalça Muzeyi ,Sahil m.,Azərbaycan kinoteatrı ,Malokan bağı ,Nizami kinoteatrı ,Səbail r.",40.39270174045908,Bakı,49.83329557619629,3002447,20 Oktyabr 2022 ,,
529,Yeni tikili,13 / 18,60 m²,2,yoxdur,112000,AZN,"Səbail r.,Badamdar q.",40.40606433283491,Bakı,49.86231650326251,3002450,04 Noyabr 2022 ,,
530,Yeni tikili,12 / 19,110 m²,3,,181000,AZN,Xətai r.,40.38816806232006,Bakı,49.83243942260742,3002456,17 Fevral 2023 ,,
531,Yeni tikili,11 / 16,62 m²,2,,51000,AZN,Xırdalan,40.45511190000001,Xırdalan,49.74459389999993,3002463,20 Oktyabr 2022 ,,
532,Yeni tikili,9 / 12,217.4 m²,4,,555000,AZN,"Qış parkı ,Bakı Musiqi Akademiyası ,Milli Konservatoriya ,Nizami kinoteatrı ,28 May m.,Nəsimi r.",40.39414959485713,Bakı,49.7993946075439,3002465,20 Oktyabr 2022 ,,
533,Yeni tikili,4 / 12,190 m²,4,var,299000,AZN,"Memar Əcəmi m.,Binəqədi r.",40.39816149998397,Bakı,49.84086155891422,3002467,30 Oktyabr 2022 ,var,var
534,Yeni tikili,8 / 19,82 m²,3,,140000,AZN,"Ukrayna dairəsi ,Həzi Aslanov m.,Əhmədli m.,Xətai r.",40.38080859350129,Bakı,49.95724192764082,3002469,20 Oktyabr 2022 ,,
535,Yeni tikili,12 / 14,190 m²,4,,320000,AZN,"Nəsimi bazarı ,Koala parkı ,Dostluq kinoteatrı ,Zoopark ,Nəsimi r.",40.37660389427779,Bakı,49.8131650686264,3002474,20 Oktyabr 2022 ,,
536,Yeni tikili,4 / 15,91 m²,3,var,120000,AZN,"Xətai r.,Həzi Aslanov q.",40.3807186,Bakı,49.92525120000005,3002481,20 Oktyabr 2022 ,,
537,Yeni tikili,10 / 12,49 m²,2,var,66000,AZN,Yasamal r.,40.37658105598415,Bakı,49.79612151108404,3002493,26 Oktyabr 2022 ,,
538,Yeni tikili,12 / 16,290 m²,5,,650000,AZN,"ASAN Xidmət №1 ,Nəsimi r.",40.39584916837152,Bakı,49.85226631164551,3002500,21 Noyabr 2022 ,,
539,Yeni tikili,5 / 20,75 m²,2,,115000,AZN,"Bakı Dövlət Universiteti ,Yasamal r.,Yasamal q.",40.37311550413357,Bakı,49.80607787094732,3002501,20 Oktyabr 2022 ,,
540,Yeni tikili,12 / 17,142 m²,3,,220000,AZN,"Əhmədli m.,Ukrayna dairəsi ,Xətai r.,Əhmədli q.",40.38873191798482,Bakı,49.95395421981815,3002510,20 Oktyabr 2022 ,,
541,Yeni tikili,5 / 17,59 m²,2,,112000,AZN,"Tibb Universiteti ,Nəsimi r.",40.38499730777751,Bakı,49.83810424804688,3002526,20 Oktyabr 2022 ,,
542,Köhnə tikili,3 / 5,70 m²,3,,114500,AZN,"Neftçilər m.,Nizami r.",40.37104456957248,Bakı,49.95549254560103,3002530,20 Oktyabr 2022 ,,
543,Yeni tikili,15 / 16,88 m²,3,var,174900,AZN,"ASAN Xidmət №1 ,Neftçi bazası ,Nəsimi r.",40.40161249035626,Bakı,49.83189384154501,3002531,20 Oktyabr 2022 ,,
544,Yeni tikili,4 / 9,41 m²,2,,57000,AZN,Xırdalan,40.45511190000001,Xırdalan,49.74459389999993,3002533,20 Oktyabr 2022 ,,
545,Yeni tikili,12 / 19,76 m²,2,var,127000,AZN,"Yasamal r.,Yeni Yasamal q.",40.39378606361042,Bakı,49.79506242160452,3002534,20 Oktyabr 2022 ,,
546,Yeni tikili,9 / 11,55 m²,2,,97000,AZN,"Yasamal r.,Yeni Yasamal q.",40.41932422288878,Bakı,49.92522239685059,3002535,20 Oktyabr 2022 ,,
547,Yeni tikili,12 / 20,90 m²,2,var,175000,AZN,"İncəsənət və Mədəniyyət Un. ,Elmlər Akademiyası m.,Yasamal r.,Yasamal q.",40.3863886681378,Bakı,49.80817391355895,3002536,20 Oktyabr 2022 ,,
548,Yeni tikili,12 / 16,72 m²,2,,83000,AZN,Abşeron r.,40.484,Bakı,49.757,3002537,20 Oktyabr 2022 ,,
549,Yeni tikili,9 / 17,79.1 m²,2,,146000,AZN,"ASAN Xidmət №1 ,Neftçi bazası ,TQDK ,Nərimanov r.",40.39872226022674,Bakı,49.83779237790836,3002538,20 Oktyabr 2022 ,,
550,Yeni tikili,19 / 19,126 m²,3,,201500,AZN,"Şah İsmayıl Xətai m.,Xətai r.",40.38310132138137,Bakı,49.87192153930664,3002539,20 Oktyabr 2022 ,,
551,Köhnə tikili,1 / 5,70 m²,3,var,108000,AZN,"Həzi Aslanov m.,Xətai r.",40.37399689469268,Bakı,49.94549969661047,3002547,20 Oktyabr 2022 ,,
552,Yeni tikili,15 / 16,110 m²,3,var,227700,AZN,"Nəsimi bazarı ,ASAN Xidmət №1 ,Nəsimi r.",40.4053327515815,Bakı,49.81380344106,3002560,20 Oktyabr 2022 ,,
553,Yeni tikili,8 / 8,80 m²,2,,55000,AZN,Xırdalan,40.45511190000001,Xırdalan,49.74459389999993,3002561,20 Oktyabr 2022 ,,
554,Yeni tikili,5 / 17,65 m²,3,,105000,AZN,"Əhmədli m.,Xətai r.,Əhmədli q.",40.38873191798482,Bakı,49.95395421981815,3002570,20 Oktyabr 2022 ,,
555,Yeni tikili,12 / 19,85 m²,2,,137000,AZN,Xətai r.,40.38816806232006,Bakı,49.83243942260742,3002574,07 Noyabr 2022 ,,
556,Yeni tikili,5 / 16,131 m²,3,,220000,AZN,"Ayna Sultanova heykəli ,Binəqədi r.,8-ci mikrorayon q.",40.39045008382347,Bakı,49.830508675731,3002575,09 Fevral 2023 ,,
557,Yeni tikili,5 / 16,70 m²,2,,69000,AZN,Xırdalan,40.45132382373737,Xırdalan,49.74407891586906,3002578,20 Oktyabr 2022 ,,
558,Köhnə tikili,4 / 5,90 m²,3,var,255000,AZN,"Səməd Vurğun parkı ,Port Baku ,Azadlıq meydanı ,28 May m.,Nəsimi r.",40.39061957433251,Bakı,49.84664440155029,3002582,20 Oktyabr 2022 ,,
559,Yeni tikili,15 / 20,75 m²,2,,95000,AZN,"Yasamal r.,Yeni Yasamal q.",40.38873191798482,Bakı,49.95395421981815,3002583,10 Oktyabr 2022 ,,
560,Köhnə tikili,3 / 5,70 m²,3,,135000,AZN,"Tibb Universiteti ,Nəsimi r.",40.37620916175648,Bakı,49.81580107043555,3002586,20 Oktyabr 2022 ,,
561,Yeni tikili,2 / 7,50 m²,2,,150000,AZN,"Ağ şəhər ,Xətai r.",40.38392849503325,Bakı,49.88784868198401,3002590,20 Oktyabr 2022 ,,
562,Yeni tikili,14 / 18,238 m²,4,,714000,AZN,"Nizami kinoteatrı ,Milli Konservatoriya ,Qış parkı ,Bakı Musiqi Akademiyası ,Malokan bağı ,Sahil m.,28 May m.,Nəsimi r.",40.38341187453192,Bakı,49.82710719108582,3002592,03 Noyabr 2022 ,,
563,Yeni tikili,2 / 18,133 m²,3,,135000,AZN,"20 Yanvar m.,Yasamal r.",40.37742938831814,Bakı,49.80915784835819,3002596,20 Oktyabr 2022 ,,
564,Yeni tikili,8 / 17,110.5 m²,3,,225000,AZN,"Nəsimi bazarı ,Nərimanov r.",40.40027766320492,Bakı,49.84006762504578,3002603,04 Noyabr 2022 ,,
565,Köhnə tikili,8 / 9,90 m²,3,var,104000,AZN,Xətai r.,40.39989258617802,Bakı,49.83979431395813,3002606,16 Dekabr 2022 ,,
566,Yeni tikili,2 / 9,54 m²,1,,33480,AZN,Abşeron r.,40.40687051020995,Xırdalan,49.81628229163361,3002613,20 Oktyabr 2022 ,,
567,Köhnə tikili,5 / 5,45 m²,2,var,79900,AZN,"Memar Əcəmi m.,Nəsimi r.",40.37024250177031,Bakı,49.97394200996779,3002624,05 Oktyabr 2022 ,,
568,Köhnə tikili,5 / 5,55 m²,2,,80000,AZN,"Nəsimi r.,3-cü mikrorayon q.",40.38274990424748,Bakı,49.8084390163422,3002625,20 Oktyabr 2022 ,,
569,Yeni tikili,9 / 19,110 m²,3,,150000,AZN,"Əhmədli m.,Xətai r.",40.41932422288878,Bakı,49.92522239685059,3002626,20 Oktyabr 2022 ,,
570,Yeni tikili,15 / 19,111 m²,3,,230000,AZN,"Bakı Dövlət Universiteti ,Elmlər Akademiyası m.,Yasamal r.",40.41932422288878,Bakı,49.92522239685059,3002627,12 Oktyabr 2022 ,,
571,Yeni tikili,5 / 16,74 m²,1,,116000,AZN,"Nəsimi bazarı ,Koala parkı ,Nəsimi r.",40.39464271895285,Bakı,49.84044792824255,3002630,20 Oktyabr 2022 ,,
572,Yeni tikili,16 / 18,140 m²,3,,250000,AZN,"Gənclik m.,Nərimanov r.",40.37620916175648,Bakı,49.81580107043555,3002631,20 Oktyabr 2022 ,,
573,Yeni tikili,3 / 18,65 m²,2,var,140000,AZN,Nərimanov r.,40.40027766320492,Bakı,49.84006762504578,3002634,04 Noyabr 2022 ,,
574,Yeni tikili,11 / 16,138 m²,3,,235000,AZN,"Azadlıq Prospekti m.,Binəqədi r.",40.37104456957248,Bakı,49.95549254560103,3002638,20 Oktyabr 2022 ,,
575,Yeni tikili,14 / 18,83.1 m²,2,,180000,AZN,"ASAN Xidmət №1 ,Tibb Universiteti ,Neftçi bazası ,Nəsimi r.",40.37520939853896,Bakı,49.84099855135474,3002644,19 Noyabr 2022 ,,
576,Köhnə tikili,4 / 9,95 m²,4,var,135800,AZN,Suraxanı r.,40.36942330420567,Bakı,49.82101321220402,3002646,20 Oktyabr 2022 ,var,var
577,Yeni tikili,7 / 16,80 m²,2,var,137000,AZN,"Əhmədli m.,Xətai r.,Əhmədli q.",40.4053327515815,Bakı,49.81380344106,3002653,20 Oktyabr 2022 ,,
578,Köhnə tikili,2 / 3,75 m²,3,var,125000,AZN,"Sabunçu r.,Bakıxanov q.",40.42800964453095,Bakı,49.9576406837398,3002658,20 Oktyabr 2022 ,,
579,Köhnə tikili,4 / 9,72 m²,3,,95000,AZN,Xətai r.,40.36822884896801,Bakı,49.813362210989,3002659,20 Oktyabr 2022 ,,
580,Yeni tikili,15 / 20,97 m²,2,,140000,AZN,"Yasamal r.,Yeni Yasamal q.",40.38873191798482,Bakı,49.95395421981815,3002660,20 Oktyabr 2022 ,,
581,Yeni tikili,8 / 17,124 m²,3,,192000,AZN,"Xətai r.,Həzi Aslanov q.",40.38873191798482,Bakı,49.95395421981815,3002663,20 Oktyabr 2022 ,,
582,Yeni tikili,14 / 16,68 m²,2,,82000,AZN,Xırdalan,40.45245455420378,Xırdalan,49.74205131907212,3002665,20 Oktyabr 2022 ,,
583,Yeni tikili,13 / 17,122 m²,3,,210000,AZN,"Ukrayna dairəsi ,Əhmədli m.,Xətai r.",40.41932422288878,Bakı,49.92522239685059,3002673,Bugün 12:12 ,,
584,Yeni tikili,10 / 18,91.1 m²,2,,122985,AZN,"Səbail r.,Badamdar q.",40.33952290000001,Bakı,49.80342369999994,3002674,20 Oktyabr 2022 ,,
585,Yeni tikili,9 / 16,83 m²,2,,145000,AZN,"ASAN Xidmət №1 ,Tibb Universiteti ,Nəsimi r.",40.37520939853896,Bakı,49.84099855135474,3002675,19 Dekabr 2022 ,,
586,Köhnə tikili,2 / 5,40 m²,2,,63000,AZN,"Memar Əcəmi m.,Nəsimi r.,4-cü mikrorayon q.",40.38274990424748,Bakı,49.8084390163422,3002679,20 Oktyabr 2022 ,,
587,Köhnə tikili,6 / 9,65 m²,2,,128000,AZN,"Binəqədi r.,8-ci mikrorayon q.",40.39980377915154,Bakı,49.86642837524414,3002687,10 Noyabr 2022 ,,
588,Yeni tikili,15 / 17,110 m²,3,var,180800,AZN,"Bakı Asiya Universiteti ,8 Noyabr m.,Nəsimi r.",40.4053327515815,Bakı,49.81380344106,3002692,20 Oktyabr 2022 ,,
589,Yeni tikili,9 / 17,140 m²,3,,250000,AZN,"Nizami m.,Dövlət Statistika Komitəsi ,Yasamal r.",40.37649764183499,Bakı,49.84163403511051,3002696,20 Oktyabr 2022 ,,
590,Yeni tikili,19 / 19,109 m²,3,,225000,AZN,"İnşaatçılar m.,Yasamal r.",40.38341187453192,Bakı,49.82710719108582,3002706,20 Oktyabr 2022 ,,
591,Yeni tikili,11 / 16,120 m²,3,var,171000,AZN,"Yasamal bazarı ,İnşaatçılar m.,Yasamal r.",40.39989258617802,Bakı,49.83979431395813,3002708,22 Oktyabr 2022 ,var,var
592,Yeni tikili,18 / 21,170 m²,3,,278000,AZN,"Dövlət Statistika Komitəsi ,Nizami m.,İncəsənət və Mədəniyyət Un. ,Nəsimi r.",40.38205852569496,Bakı,49.82525404002049,3002709,20 Oktyabr 2022 ,,
593,Yeni tikili,7 / 19,103 m²,3,var,238000,AZN,"Tibb Universiteti ,Nəsimi r.",40.4053327515815,Bakı,49.81380344106,3002712,20 Oktyabr 2022 ,,
594,Yeni tikili,9 / 15,74 m²,2,,185000,AZN,"İnşaatçılar m.,Yasamal r.",40.39029271122013,Bakı,49.80265617370605,3002720,20 Oktyabr 2022 ,,
595,Yeni tikili,8 / 17,138 m²,3,var,264500,AZN,"Binəqədi r.,8-ci mikrorayon q.",40.4053327515815,Bakı,49.81380344106,3002721,01 Oktyabr 2022 ,,
596,Yeni tikili,6 / 12,137 m²,3,var,175000,AZN,"Yasamal r.,Yeni Yasamal q.",40.38984892898383,Bakı,49.78959266662597,3002733,20 Oktyabr 2022 ,,
597,Yeni tikili,18 / 21,143 m²,3,,140000,AZN,"Tibb Universiteti ,Nəsimi r.",40.40952590477563,Bakı,49.84445571899418,3002736,04 Noyabr 2022 ,,
598,Yeni tikili,17 / 20,46.9 m²,2,,85000,AZN,"20 Yanvar m.,Yasamal r.",40.40075197015513,Bakı,49.80595620395088,3002739,20 Oktyabr 2022 ,,
599,Yeni tikili,8 / 13,141 m²,3,,260000,AZN,Nizami r.,40.41699219735978,Bakı,49.93324756622318,3002745,16 Noyabr 2022 ,,
600,Köhnə tikili,2 / 5,40 m²,1,,62000,AZN,"Nəsimi r.,4-cü mikrorayon q.",40.37649764183499,Bakı,49.84163403511051,3002748,20 Oktyabr 2022 ,,
601,Yeni tikili,11 / 16,140 m²,3,var,235000,AZN,"Ayna Sultanova heykəli ,Binəqədi r.",40.4053327515815,Bakı,49.81380344106,3002750,20 Oktyabr 2022 ,,
602,Yeni tikili,12 / 17,115 m²,3,,180000,AZN,"Elmlər Akademiyası m.,Yasamal r.",40.37005679625383,Bakı,49.82993423938751,3002752,20 Oktyabr 2022 ,,
603,Köhnə tikili,3 / 4,65 m²,2,var,161000,AZN,"Şah İsmayıl Xətai m.,Xətai r.",40.36942330420567,Bakı,49.82101321220402,3002755,25 Oktyabr 2022 ,var,var
604,Yeni tikili,5 / 14,126 m²,3,,179500,AZN,"Bakı Asiya Universiteti ,8 Noyabr m.,Nəsimi r.",40.39989258617802,Bakı,49.83979431395813,3002756,21 Noyabr 2022 ,,
605,Yeni tikili,13 / 19,66 m²,2,,139000,AZN,"Neftçilər m.,Nizami r.",40.41113523043337,Bakı,49.95146512985229,3002761,20 Oktyabr 2022 ,,
606,Yeni tikili,11 / 18,70 m²,2,var,169000,AZN,"Şərq bazarı ,Nərimanov r.",40.39489418492813,Bakı,49.86098617315296,3002768,20 Oktyabr 2022 ,,
607,Yeni tikili,13 / 15,48 m²,2,,125000,AZN,"İnşaatçılar m.,Yasamal r.",40.39414959485713,Bakı,49.7993946075439,3002772,26 Noyabr 2022 ,,
608,Yeni tikili,6 / 18,90 m²,2,var,180000,AZN,"Şah İsmayıl Xətai m.,Xətai r.",40.37738239264175,Bakı,49.82495069503784,3002788,19 Noyabr 2022 ,,
609,Yeni tikili,8 / 16,57 m²,2,,133000,AZN,"Memar Əcəmi m.,Nəsimi r.,5-ci mikrorayon q.",40.41049377472457,Bakı,49.81246765927733,3002796,20 Oktyabr 2022 ,,
610,Köhnə tikili,1 / 9,105 m²,4,var,125000,AZN,Binəqədi r.,40.36942330420567,Bakı,49.82101321220402,3002798,09 Fevral 2023 ,var,var
611,Yeni tikili,2 / 16,97 m²,3,,127000,AZN,"Qara Qarayev m.,Nizami r.",40.38873191798482,Bakı,49.95395421981815,3002799,21 Yanvar 2023 ,,
612,Yeni tikili,12 / 15,139 m²,3,var,260000,AZN,"ASAN Xidmət №1 ,Tibb Universiteti ,Neftçi bazası ,Nəsimi r.",40.4053327515815,Bakı,49.81380344106,3002804,20 Oktyabr 2022 ,,
613,Köhnə tikili,9 / 9,100 m²,3,,120000,AZN,Yasamal r.,40.37620916175648,Bakı,49.81580107043555,3002809,20 Oktyabr 2022 ,,
614,Köhnə tikili,5 / 9,75 m²,3,,105000,AZN,"20 Yanvar m.,Nəsimi r.,1-ci mikrorayon q.",40.39061957433251,Bakı,49.84664440155029,3002812,27 Sentyabr 2022 ,,
615,Yeni tikili,8 / 19,60 m²,2,var,96000,AZN,Yasamal r.,40.41275458768677,Bakı,49.80066612888868,3002814,20 Oktyabr 2022 ,,
616,Yeni tikili,8 / 18,157 m²,4,,290000,AZN,"İnşaatçılar m.,Yasamal r.",40.38873191798482,Bakı,49.95395421981815,3002816,20 Oktyabr 2022 ,,
617,Yeni tikili,2 / 12,179 m²,4,,300000,AZN,"Azərbaycan turizm institutu ,Gənclik m.,Nərimanov r.",40.41932422288878,Bakı,49.92522239685059,3002818,20 Oktyabr 2022 ,,
618,Yeni tikili,12 / 18,63.4 m²,3,var,108000,AZN,Yasamal r.,40.40210780478213,Bakı,49.85758781433109,3002820,17 Noyabr 2022 ,,
619,Yeni tikili,10 / 10,185 m²,5,var,265000,AZN,"Yasamal bazarı ,İnşaatçılar m.,Yasamal r.",40.40210780478213,Bakı,49.85758781433109,3002821,17 Noyabr 2022 ,,
620,Köhnə tikili,1 / 9,60 m²,2,,110000,AZN,Yasamal r.,40.38964558015979,Bakı,49.81535493390867,3002824,20 Oktyabr 2022 ,,
621,Köhnə tikili,5 / 9,45 m²,1,,54000,AZN,"Xalqlar Dostluğu m.,Suraxanı r.,Yeni Günəşli q.",40.39748762097258,Bakı,49.95276912689208,3002830,20 Oktyabr 2022 ,,
622,Köhnə tikili,1 / 9,135 m²,5,var,150000,AZN,"Həzi Aslanov m.,Xətai r.,Həzi Aslanov q.",40.39270174045908,Bakı,49.83329557619629,3002831,20 Oktyabr 2022 ,,
623,Köhnə tikili,3 / 4,31 m²,1,var,72000,AZN,"Neftçilər m.,Nizami r.",40.41004652257476,Bakı,49.94233428149656,3002832,20 Oktyabr 2022 ,,
624,Köhnə tikili,1 / 9,100 m²,3,,135000,AZN,"Nəsimi m.,Nəsimi r.",40.37620916175648,Bakı,49.81580107043555,3002833,02 Noyabr 2022 ,,
625,Yeni tikili,14 / 17,103 m²,3,,210000,AZN,"Yasamal r.,Yeni Yasamal q.",40.38873191798482,Bakı,49.95395421981815,3002834,20 Oktyabr 2022 ,,
626,Yeni tikili,14 / 19,218 m²,4,,650000,AZN,"Elmlər Akademiyası m.,Hüseyn Cavid parkı ,Yasamal r.",40.38525881895442,Bakı,49.85801696777344,3002836,20 Oktyabr 2022 ,,
627,Yeni tikili,10 / 11,85 m²,3,,65000,AZN,Abşeron r.,40.39061957433251,Xırdalan,49.84664440155029,3002840,06 Oktyabr 2022 ,,
628,Yeni tikili,5 / 16,130 m²,3,var,255000,AZN,"Botanika bağı ,Səbail r.,Badamdar q.",40.40606433283491,Bakı,49.86231650326251,3002842,04 Noyabr 2022 ,,
629,Köhnə tikili,8 / 9,75 m²,3,,111000,AZN,"Xətai r.,Köhnə Günəşli q.",40.39298300258589,Bakı,49.95403544813546,3002843,01 Yanvar 2023 ,,
630,Yeni tikili,16 / 22,120 m²,3,,230000,AZN,"İnşaatçılar m.,Yasamal r.",40.4053327515815,Bakı,49.81380344106,3002855,21 Noyabr 2022 ,,
631,Yeni tikili,9 / 17,96 m²,3,,122000,AZN,"Həzi Aslanov m.,Xətai r.,Köhnə Günəşli q.",40.39298300258589,Bakı,49.95403544813546,3002862,20 Oktyabr 2022 ,,
632,Yeni tikili,4 / 14,110 m²,3,,175000,AZN,"Yasamal r.,Yeni Yasamal q.",40.38684986511659,Bakı,49.78658322811126,3002863,20 Oktyabr 2022 ,,
633,Köhnə tikili,2 / 5,55 m²,2,,148000,AZN,"Yasamal r.,Yasamal q.",40.48200538004419,Bakı,50.12402772903442,3002864,20 Oktyabr 2022 ,,
634,Köhnə tikili,4 / 5,45 m²,1,,75000,AZN,"Yasamal bazarı ,İnşaatçılar m.,Yasamal r.,Yasamal q.",40.3839039,Bakı,49.79972640000005,3002867,20 Oktyabr 2022 ,,
635,Yeni tikili,9 / 17,154 m²,3,,250000,AZN,"Tibb Universiteti ,Nəsimi r.",40.39414959485713,Bakı,49.7993946075439,3002870,20 Oktyabr 2022 ,,
636,Yeni tikili,1 / 18,112 m²,3,var,204000,AZN,Yasamal r.,40.4053327515815,Bakı,49.81380344106,3002877,20 Oktyabr 2022 ,,
637,Yeni tikili,14 / 17,57 m²,2,,118000,AZN,"Qara Qarayev m.,Nizami r.",40.38873191798482,Bakı,49.95395421981815,3002883,20 Oktyabr 2022 ,,
638,Yeni tikili,4 / 17,148 m²,3,,165000,AZN,"Yasamal r.,Yeni Yasamal q.",40.38513372002494,Bakı,49.78728328466415,3002885,19 Noyabr 2022 ,,
639,Yeni tikili,11 / 12,153 m²,4,,245000,AZN,Yasamal r.,40.372048183112,Bakı,49.79540594834422,3002886,29 Oktyabr 2022 ,,
640,Yeni tikili,14 / 16,85 m²,2,,180000,AZN,"Şah İsmayıl Xətai m.,Xətai r.",40.38264366149726,Bakı,49.87209320068359,3002895,20 Oktyabr 2022 ,,
641,Yeni tikili,7 / 17,105 m²,2,var,67000,AZN,"Xətai r.,Həzi Aslanov q.",40.3807186,Bakı,49.92525120000005,3002896,20 Oktyabr 2022 ,,
642,Yeni tikili,16 / 18,105 m²,3,,163500,AZN,"Həzi Aslanov m.,Xətai r.",40.39816149998397,Bakı,49.84086155891422,3002897,19 Noyabr 2022 ,,
643,Yeni tikili,4 / 15,91 m²,3,,120000,AZN,"Xətai r.,Həzi Aslanov q.",40.37104456957248,Bakı,49.95549254560103,3002898,20 Oktyabr 2022 ,,
644,Yeni tikili,9 / 16,125 m²,4,,210000,AZN,"Bakı Dövlət Universiteti ,Elmlər Akademiyası m.,Yasamal r.",40.38373468484185,Bakı,49.81024682521824,3002901,13 Mart 2023 ,,
645,Yeni tikili,13 / 17,103 m²,3,,150000,AZN,"Xətai r.,Həzi Aslanov q.",40.39298300258589,Bakı,49.95403544813546,3002903,20 Oktyabr 2022 ,,
646,Yeni tikili,4 / 9,72 m²,3,,74000,AZN,Xırdalan,40.45511190000001,Xırdalan,49.74459389999993,3002905,20 Oktyabr 2022 ,,
647,Yeni tikili,14 / 16,95 m²,2,var,160000,AZN,"İnşaatçılar m.,Yasamal r.,Yasamal q.",40.40928899571853,Bakı,49.80875551700596,3002908,09 Yanvar 2023 ,,
648,Yeni tikili,6 / 17,155 m²,4,,350000,AZN,"Qara Qarayev m.,Nizami r.",40.38873191798482,Bakı,49.95395421981815,3002915,08 Oktyabr 2022 ,,
649,Yeni tikili,8 / 14,110 m²,3,var,157000,AZN,Nizami r.,40.40978135373791,Bakı,49.95434014516603,3002916,10 Noyabr 2022 ,,
650,Yeni tikili,3 / 16,132.3 m²,3,yoxdur,100000,AZN,"Nizami r.,8-ci kilometr q.",40.40723258652207,Bakı,49.95657607074607,3002925,20 Oktyabr 2022 ,,
651,Köhnə tikili,5 / 5,47 m²,2,,97000,AZN,"Bayıl parkı ,Səbail r.,Bayıl q.",40.35187413397249,Bakı,49.83135747025531,3002929,23 Noyabr 2022 ,,
652,Yeni tikili,8 / 17,65 m²,3,,110000,AZN,"Şah İsmayıl Xətai m.,Xətai r.",40.4053327515815,Bakı,49.81380344106,3002931,20 Oktyabr 2022 ,,
653,Yeni tikili,19 / 20,141 m²,3,,180000,AZN,"Yasamal bazarı ,İnşaatçılar m.,Yasamal r.",40.3839039,Bakı,49.79972640000005,3002933,20 Oktyabr 2022 ,,
654,Köhnə tikili,4 / 5,45 m²,2,,85500,AZN,Nərimanov r.,40.38816806232006,Bakı,49.83243942260742,3002936,24 Oktyabr 2022 ,,
655,Yeni tikili,13 / 16,50 m²,2,var,110000,AZN,"ASAN Xidmət №3 ,Yasamal bazarı ,Yasamal r.",40.37998804209546,Bakı,49.80538730697219,3002939,20 Oktyabr 2022 ,,
656,Köhnə tikili,9 / 9,39 m²,1,,56500,AZN,"Suraxanı r.,Yeni Günəşli q.",40.37738463838523,Bakı,49.97401222229003,3002942,20 Oktyabr 2022 ,,
657,Yeni tikili,2 / 16,60 m²,2,,86000,AZN,"Yasamal r.,Yeni Yasamal q.",40.39020848068951,Bakı,49.78830520629882,3002947,26 Sentyabr 2022 ,,
658,Yeni tikili,10 / 22,271 m²,5,yoxdur,406500,AZN,"Yasamal bazarı ,Yasamal r.,Elmlər Akademiyası m.",40.37998753828459,Bakı,49.85486268997196,3002948,23 Fevral 2023 ,,
659,Yeni tikili,18 / 18,146 m²,3,,141000,AZN,"Zərifə Əliyeva adına park ,Binəqədi r.,9-cu mikrorayon q.",40.40718945487256,Bakı,49.81836318969727,3002950,21 Dekabr 2022 ,,
660,Yeni tikili,11 / 16,138 m²,3,,235000,AZN,"Binəqədi r.,7-ci mikrorayon q.",40.39205366748811,Bakı,49.84065234661102,3002955,20 Oktyabr 2022 ,,
661,Köhnə tikili,4 / 6,140 m²,4,,450000,AZN,"Xalça Muzeyi ,Sahil m.,Sahil bağı ,Malokan bağı ,Səbail r.",40.39270174045908,Bakı,49.83329557619629,3002957,20 Oktyabr 2022 ,,
662,Yeni tikili,15 / 16,75 m²,2,var,185000,AZN,"Şah İsmayıl Xətai m.,Xətai r.",40.38264584849752,Bakı,49.87077726792899,3002959,20 Oktyabr 2022 ,var,var
663,Yeni tikili,14 / 15,125 m²,3,,250000,AZN,"Qara Qarayev m.,Nizami r.,8-ci kilometr q.",40.42003312059082,Bakı,49.92922605585795,3002965,19 Noyabr 2022 ,,
664,Yeni tikili,18 / 22,181 m²,4,,155000,AZN,Yasamal r.,40.4053327515815,Bakı,49.81380344106,3002966,21 Oktyabr 2022 ,,
