Kateqoriya,Mərtəbə,Sahə,Otaq sayı,Çıxarış,price,locations,latitude,city,longitude,date,Təmir,İpoteka
Yeni tikili,2 / 17,62 m²,2,,75000,"Həzi Aslanov m.,Xətai r.,Həzi Aslanov q.",40.4053327515815,Bakı,49.81380344106,28 Sentyabr 2022 ,,
Yeni tikili,8 / 17,73 m²,2,,120000,"Zərifə Əliyeva adına park ,Binəqədi r.,9-cu mikrorayon q.",40.4228697516585,Bakı,49.81694719685061,18 Oktyabr 2022 ,,
Yeni tikili,11 / 14,75 m²,2,yoxdur,130000,"Təhsil Nazirliyi ,Nərimanov r.",40.39816149998397,Bakı,49.84086155891422,01 Oktyabr 2022 ,,
Yeni tikili,4 / 4,78 m²,3,,64000,Xırdalan,40.45511190000001,Xırdalan,49.74459389999993,18 Oktyabr 2022 ,,
Yeni tikili,10 / 16,90 m²,2,yoxdur,130000,Nərimanov r.,40.39816149998397,Bakı,49.84086155891422,01 Oktyabr 2022 ,,
Yeni tikili,8 / 16,135 m²,3,,245000,"Binəqədi r.,8-ci mikrorayon q.",40.41890356576523,Bakı,49.85291004180908,18 Oktyabr 2022 ,,
Yeni tikili,18 / 20,59 m²,2,var,125000,"Yasamal bazarı ,İnşaatçılar m.,Yasamal r.,Yasamal q.",40.3839039,Bakı,49.79972640000005,18 Oktyabr 2022 ,,
Yeni tikili,4 / 9,57 m²,2,,77000,Xırdalan,40.45511190000001,Xırdalan,49.74459389999993,18 Oktyabr 2022 ,,
Köhnə tikili,3 / 5,60 m²,2,,85000,"Nəsimi m.,Binəqədi r.,6-cı mikrorayon q.",40.42595738265467,Bakı,49.82836562716016,18 Oktyabr 2022 ,,
Yeni tikili,14 / 17,98 m²,2,,152000,"Zərifə Əliyeva adına park ,Binəqədi r.,9-cu mikrorayon q.",40.42285341636961,Bakı,49.81703302753908,19 Noyabr 2022 ,,
Yeni tikili,5 / 16,117 m²,2,var,173000,"Şərq bazarı ,Nərimanov r.",40.40165844427115,Bakı,49.86887991428379,18 Oktyabr 2022 ,,
Yeni tikili,8 / 16,68 m²,2,,78000,Xırdalan,40.45245455420378,Xırdalan,49.74205131907212,18 Noyabr 2022 ,,
Yeni tikili,5 / 16,120 m²,3,yoxdur,240000,"Şərq bazarı ,Nərimanov r.",40.38645125868876,Bakı,49.85338341671899,30 Noyabr 2022 ,,
Köhnə tikili,1 / 5,70 m²,3,,150000,"Ayna Sultanova heykəli ,Binəqədi r.,8-ci mikrorayon q.",40.42527440160644,Bakı,49.85134363174438,18 Noyabr 2022 ,,
Yeni tikili,3 / 12,55 m²,2,,55000,Xırdalan,40.4594222097755,Xırdalan,49.74030236557609,18 Oktyabr 2022 ,,
Yeni tikili,2 / 10,180 m²,4,,275000,"M.Hüseynzadə parkı ,Sevil Qazıyeva parkı ,İzmir parkı ,Nizami m.,Yasamal r.",40.39045008382347,Bakı,49.830508675731,18 Oktyabr 2022 ,,
Yeni tikili,1 / 6,73 m²,3,var,82000,"Abşeron r.,Masazır q.",40.49219701939483,Bakı,49.75321769714355,18 Oktyabr 2022 ,,
Köhnə tikili,2 / 6,54 m²,2,var,110000,Xətai r.,40.38727822105774,Bakı,49.88063813930331,18 Oktyabr 2022 ,,
Köhnə tikili,5 / 5,35 m²,1,,62000,"Xətai r.,Həzi Aslanov q.",40.3807186,Bakı,49.92525120000005,18 Oktyabr 2022 ,,
Yeni tikili,16 / 16,65 m²,3,,100000,"Binəqədi r.,Biləcəri q.",40.42385238819654,Bakı,49.80408506395202,18 Oktyabr 2022 ,,
Köhnə tikili,3 / 5,45 m²,2,,50000,Xırdalan,40.45893241577285,Xırdalan,49.74553803757316,28 Noyabr 2022 ,,
Yeni tikili,11 / 17,100 m²,3,var,195000,"Yasamal bazarı ,İnşaatçılar m.,Yasamal r.",40.39045008382347,Bakı,49.830508675731,18 Oktyabr 2022 ,,
Köhnə tikili,4 / 5,75 m²,3,,125000,"Binəqədi r.,7-ci mikrorayon q.",40.42527440160644,Bakı,49.85134363174438,18 Oktyabr 2022 ,,
Yeni tikili,3 / 7,87 m²,3,,71000,"Abşeron r.,Masazır q.",40.4941744317752,Bakı,49.76007521407585,18 Oktyabr 2022 ,,
Köhnə tikili,9 / 9,100 m²,5,var,110000,"Xətai r.,Həzi Aslanov q.",40.3807186,Bakı,49.92525120000005,18 Oktyabr 2022 ,,
Yeni tikili,14 / 16,50 m²,2,,110000,"Azadlıq Prospekti m.,Binəqədi r.,8-ci mikrorayon q.",40.42527440160644,Bakı,49.85134363174438,24 Dekabr 2022 ,,
Köhnə tikili,9 / 9,87.5 m²,2,var,125500,"Nəsimi r.,4-cü mikrorayon q.",40.41231993928577,Bakı,49.80468273982037,20 Noyabr 2022 ,,
Yeni tikili,10 / 17,230 m²,4,,365000,"ASAN Xidmət №1 ,Neftçi bazası ,Tibb Universiteti ,Nərimanov r.",40.40554735588255,Bakı,49.87506508827209,04 Noyabr 2022 ,,
Yeni tikili,9 / 16,45 m²,1,var,107000,"28 May m.,Neft Akademiyası ,Bakı Musiqi Akademiyası ,Səməd Vurğun parkı ,Milli Konservatoriya ,Nərimanov r.",40.37986494545423,Bakı,49.84853267669678,18 Oktyabr 2022 ,,
Yeni tikili,18 / 20,94 m²,3,,195000,"Şah İsmayıl Xətai m.,Xətai r.",40.3843596,Bakı,49.87381000000005,18 Oktyabr 2022 ,,
Köhnə tikili,2 / 5,34 m²,1,,76000,"Memar Əcəmi m.,Nəsimi r.,4-cü mikrorayon q.",40.4157710168948,Bakı,49.81499865115581,18 Oktyabr 2022 ,,
Yeni tikili,9 / 17,120 m²,3,,217000,"Montin bazarı ,Nərimanov r.",40.40554735588255,Bakı,49.87506508827209,01 Oktyabr 2022 ,,
Yeni tikili,10 / 15,83 m²,2,,150000,"Xətai r.,Həzi Aslanov q.",40.3807186,Bakı,49.92525120000005,18 Oktyabr 2022 ,,
Köhnə tikili,5 / 5,45 m²,2,,50000,Sumqayıt,40.60220966359696,Sumqayıt,49.64804138148667,18 Oktyabr 2022 ,,
Yeni tikili,14 / 17,90 m²,3,,205000,"Nəsimi bazarı ,Park Zorge ,Koala parkı ,Nəsimi r.",40.42527440160644,Bakı,49.85134363174438,18 Oktyabr 2022 ,,
Köhnə tikili,1 / 9,80 m²,4,var,116000,"Əhmədli m.,Xətai r.,Əhmədli q.",40.37613086332457,Bakı,49.91559462210881,19 Noyabr 2022 ,,
Yeni tikili,3 / 18,92 m²,2,,186500,"Nəriman Nərimanov m.,Nərimanov r.",40.40718945487256,Bakı,49.81836318969727,18 Noyabr 2022 ,,
Köhnə tikili,3 / 9,40 m²,2,,65000,"Xalqlar Dostluğu m.,Xətai r.,Əhmədli q.",40.39968476091122,Bakı,49.94952532143708,19 Oktyabr 2022 ,,
Yeni tikili,11 / 12,57 m²,2,,78000,Qaradağ r.,40.30993802049373,Bakı,49.74146935880666,19 Oktyabr 2022 ,,
Köhnə tikili,1 / 5,58 m²,2,,77000,"Memar Əcəmi m.,Nəsimi r.",40.42463128324992,Bakı,49.82827342647775,24 Sentyabr 2022 ,,
Yeni tikili,15 / 16,117.5 m²,3,,255000,Nərimanov r.,40.4089166,Bakı,49.86399959999994,19 Oktyabr 2022 ,,
Köhnə tikili,2 / 2,56 m²,2,,80000,"Binəqədi r.,M.Ə.Rəsulzadə q.",40.4339581,Bakı,49.83662379999998,19 Oktyabr 2022 ,,
Yeni tikili,2 / 12,92 m²,3,,169000,"Azadlıq Prospekti m.,Binəqədi r.,8-ci mikrorayon q.",40.42646832971582,Bakı,49.84398112963868,19 Oktyabr 2022 ,,
Yeni tikili,4 / 16,106 m²,3,,260000,"ASAN Xidmət №1 ,Tibb Universiteti ,Nəsimi bazarı ,Nəsimi r.",40.39677903900652,Bakı,49.83575778576663,15 Oktyabr 2022 ,,
Yeni tikili,11 / 16,140 m²,4,,150000,Abşeron r.,40.45511190000001,Xırdalan,49.74459389999993,19 Oktyabr 2022 ,,
Köhnə tikili,2 / 9,55 m²,2,,73500,"Suraxanı r.,Yeni Günəşli q.",40.38395801295385,Bakı,49.97983082359229,19 Oktyabr 2022 ,,
Köhnə tikili,8 / 8,60 m²,2,,118000,"Sovetski ,Nərimanov heykəli ,Yasamal r.",40.36822884896801,Bakı,49.813362210989,04 Oktyabr 2022 ,,
Köhnə tikili,4 / 9,82 m²,3,,130000,"Əhmədli m.,Xətai r.",40.36822884896801,Bakı,49.813362210989,28 Sentyabr 2022 ,,
Köhnə tikili,5 / 5,65 m²,3,,105000,"Neftçilər m.,Nizami r.,8-ci kilometr q.",40.41019578104481,Bakı,49.94320392608643,27 Dekabr 2022 ,,
Yeni tikili,4 / 10,70 m²,2,,117000,"ASAN Xidmət №1 ,TQDK ,Nəsimi bazarı ,Nəsimi r.",40.39796181991337,Bakı,49.8393312802966,19 Oktyabr 2022 ,,
Köhnə tikili,3 / 9,60 m²,2,,107000,"Binəqədi r.,9-cu mikrorayon q.",40.42793349999999,Bakı,49.81359980000002,19 Oktyabr 2022 ,,
Yeni tikili,13 / 16,134 m²,3,,165000,"Suraxanı r.,Qaraçuxur q.",40.38499730777751,Bakı,49.83810424804688,06 Oktyabr 2022 ,,
Köhnə tikili,1 / 9,60 m²,2,,95000,"Binəqədi r.,9-cu mikrorayon q.",40.42793349999999,Bakı,49.81359980000002,19 Oktyabr 2022 ,,
Yeni tikili,15 / 20,154 m²,4,,232000,"Azadlıq Prospekti m.,Binəqədi r.,8-ci mikrorayon q.",40.42527440160644,Bakı,49.85134363174438,19 Oktyabr 2022 ,,
Köhnə tikili,1 / 5,80 m²,3,,125000,"Sabunçu r.,Bakıxanov q.",40.41506433016008,Bakı,49.96858546860277,19 Oktyabr 2022 ,,
Köhnə tikili,1 / 5,57 m²,2,,67000,"Nizami r.,8-ci kilometr q.",40.40553291262841,Bakı,49.9570362036692,29 Sentyabr 2022 ,,
Yeni tikili,5 / 17,60 m²,2,yoxdur,118000,"Tibb Universiteti ,ASAN Xidmət №1 ,Nəsimi r.",40.39989258617802,Bakı,49.83979431395813,09 Dekabr 2022 ,,
Köhnə tikili,1 / 9,77 m²,3,,120000,"Bakı Dövlət Universiteti ,Yasamal r.",40.38525881895442,Bakı,49.85801696777344,19 Oktyabr 2022 ,,
Yeni tikili,3 / 17,72 m²,2,,145000,"Qara Qarayev m.,Nizami r.",40.38873191798482,Bakı,49.95395421981815,18 Noyabr 2022 ,,
Köhnə tikili,4 / 9,92 m²,3,,165000,"Şəhidlər xiyabanı ,Yasamal r.",40.3863886681378,Bakı,49.80817391355895,19 Oktyabr 2022 ,,
Yeni tikili,9 / 19,105 m²,3,var,138000,"İnşaatçılar m.,Yasamal r.",40.39980377915154,Bakı,49.86642837524414,10 Dekabr 2022 ,,
Köhnə tikili,7 / 10,110 m²,4,,245000,"İncəsənət və Mədəniyyət Un. ,Elmlər Akademiyası m.,Yasamal r.",40.3863886681378,Bakı,49.80817391355895,19 Oktyabr 2022 ,,
Yeni tikili,14 / 16,71 m²,1,,85000,"Avtovağzal m.,Binəqədi r.,Biləcəri q.",40.42134255321898,Bakı,49.79434202322889,19 Oktyabr 2022 ,,
Yeni tikili,12 / 18,90 m²,2,,180000,"Qara Qarayev m.,Nizami r.",40.38873191798482,Bakı,49.95395421981815,03 Fevral 2023 ,,
Yeni tikili,7 / 16,55 m²,2,,90000,"Həzi Aslanov m.,Xətai r.",40.39026819642278,Bakı,49.95772004127506,19 Oktyabr 2022 ,,
Yeni tikili,18 / 21,140 m²,3,var,420000,"Nizami m.,Beşmərtəbə ,Yasamal r.",40.37957159768438,Bakı,49.83156913493153,19 Noyabr 2022 ,,
Yeni tikili,4 / 15,148 m²,3,yoxdur,213000,"Nəriman Nərimanov m.,Nərimanov r.",40.38264366149726,Bakı,49.87209320068359,19 Oktyabr 2022 ,,
Yeni tikili,11 / 11,36 m²,1,,38500,Xırdalan,40.45511190000001,Xırdalan,49.74459389999993,19 Oktyabr 2022 ,,
Yeni tikili,4 / 16,95.2 m²,3,,160000,"Şah İsmayıl Xətai m.,Xətai r.",40.38264366149726,Bakı,49.87209320068359,19 Oktyabr 2022 ,,
Yeni tikili,11 / 18,118 m²,3,,143000,"Yasamal r.,Yeni Yasamal q.",40.38499730777751,Bakı,49.84222412109375,19 Oktyabr 2022 ,,
Yeni tikili,8 / 16,98 m²,2,,180000,"Qara Qarayev m.,Nizami r.",40.38873191798482,Bakı,49.95395421981815,18 Noyabr 2022 ,,
Yeni tikili,5 / 5,54 m²,2,,45000,"Abşeron r.,Masazır q.",40.49185094555289,Bakı,49.75366323871008,19 Oktyabr 2022 ,,
Yeni tikili,11 / 12,107 m²,3,,137000,"Qara Qarayev m.,Nizami r.",40.39816149998397,Bakı,49.84086155891422,29 Oktyabr 2022 ,,
Yeni tikili,18 / 27,150 m²,3,,360000,Yasamal r.,40.37620916175648,Bakı,49.81580107043555,14 Oktyabr 2022 ,,
Yeni tikili,13 / 16,98 m²,3,yoxdur,208000,"Qara Qarayev m.,Nizami r.",40.38873191798482,Bakı,49.95395421981815,03 Mart 2023 ,,
Yeni tikili,14 / 17,70 m²,2,var,121000,"Həzi Aslanov m.,Xətai r.,Həzi Aslanov q.",40.38781667161964,Bakı,49.85220193862915,19 Oktyabr 2022 ,,
Yeni tikili,8 / 18,102 m²,2,,163200,"Nəriman Nərimanov m.,Nəriman Nərimanov parkı ,Nərimanov r.",40.3863886681378,Bakı,49.80817391355895,19 Oktyabr 2022 ,,
Yeni tikili,13 / 17,116 m²,3,,295000,"Nəriman Nərimanov m.,Nəriman Nərimanov parkı ,Nərimanov r.",40.40554735588255,Bakı,49.87506508827209,19 Oktyabr 2022 ,,
Yeni tikili,2 / 20,60 m²,2,var,101000,Xətai r.,40.39989258617802,Bakı,49.83979431395813,19 Oktyabr 2022 ,,
Yeni tikili,15 / 17,216 m²,4,,645000,"M.Hüseynzadə parkı ,Sevil Qazıyeva parkı ,Nizami m.,Yasamal r.",40.40554735588255,Bakı,49.87506508827209,19 Oktyabr 2022 ,,
Yeni tikili,14 / 14,72 m²,2,,125000,Nərimanov r.,40.40165027405231,Bakı,49.86080646514893,19 Oktyabr 2022 ,,
Yeni tikili,11 / 17,60 m²,2,var,93000,"Neftçilər m.,Nizami r.",40.39816149998397,Bakı,49.84086155891422,05 Noyabr 2022 ,,
Köhnə tikili,2 / 9,80 m²,3,,125000,Xətai r.,40.37104456957248,Bakı,49.95549254560103,19 Oktyabr 2022 ,,
Yeni tikili,6 / 6,75 m²,3,,68000,"Abşeron r.,Masazır q.",40.38873191798482,Bakı,49.95395421981815,19 Oktyabr 2022 ,,
Yeni tikili,4 / 9,57 m²,2,var,76000,Abşeron r.,40.37005679625383,Xırdalan,49.82993423938751,19 Oktyabr 2022 ,,
Köhnə tikili,2 / 5,41 m²,2,,83000,"İnşaatçılar m.,Yasamal r.,Yasamal q.",40.39408422578834,Bakı,49.80179786682129,16 Oktyabr 2022 ,,
Yeni tikili,9 / 17,106 m²,3,,250000,"Yasamal bazarı ,İnşaatçılar m.,Yasamal r.",40.37620916175648,Bakı,49.81580107043555,19 Oktyabr 2022 ,,
Köhnə tikili,2 / 4,64 m²,2,,218000,"Azərbaycan kinoteatrı ,Fontanlar bağı ,Xalça Muzeyi ,M.Ə.Sabir parkı ,İçəri Şəhər ,Mərkəzi Univermaq ,Sahil m.,İçəri Şəhər m.,Səbail r.",40.37738239264175,Bakı,49.82495069503784,07 Noyabr 2022 ,,
Yeni tikili,15 / 17,144 m²,3,,348000,"Koala parkı ,Dostluq kinoteatrı ,Nəsimi bazarı ,Park Zorge ,Nəsimi r.",40.39205366748811,Bakı,49.84065234661102,28 Yanvar 2023 ,,
Köhnə tikili,8 / 9,120 m²,5,,140900,"Neapol dairəsi ,Xətai r.",40.37104456957248,Bakı,49.95549254560103,25 Oktyabr 2022 ,,
Yeni tikili,15 / 18,94 m²,3,,230000,"Bakı Slavyan Universiteti ,Azərbaycan Dillər Universiteti ,28 May m.,Nəsimi r.",40.38525881895442,Bakı,49.85801696777344,19 Oktyabr 2022 ,,
Yeni tikili,12 / 13,68 m²,2,,108000,"Qara Qarayev m.,Nizami r.",40.3863886681378,Bakı,49.80817391355895,19 Oktyabr 2022 ,,
Köhnə tikili,2 / 5,75 m²,3,,165000,"Nəriman Nərimanov m.,Nəriman Nərimanov parkı ,Nərimanov r.",40.39203732471822,Bakı,49.84165549278259,18 Dekabr 2022 ,,
Köhnə tikili,2 / 9,50 m²,2,,86000,"Yasamal bazarı ,İnşaatçılar m.,Yasamal r.",40.37660389427779,Bakı,49.8131650686264,19 Oktyabr 2022 ,,
Yeni tikili,9 / 17,83.1 m²,2,var,145000,"ASAN Xidmət №1 ,Neftçi bazası ,Tibb Universiteti ,Nəsimi r.",40.40554735588255,Bakı,49.87506508827209,18 Noyabr 2022 ,,
Yeni tikili,3 / 18,100 m²,3,,170000,"Yasamal bazarı ,İnşaatçılar m.,Yasamal r.",40.38873191798482,Bakı,49.95395421981815,18 Dekabr 2022 ,,
Köhnə tikili,1 / 4,55 m²,2,,126000,"Axundov bağı ,İqsadiyyat Universiteti ,Dövlət İdarəçilik Akademiyası ,İçəri Şəhər m.,Prezident parkı ,Sovetski ,Qubernator parkı ,M.Ə.Sabir parkı ,Nərimanov heykəli ,Səbail r.",40.39816149998397,Bakı,49.84086155891422,29 Sentyabr 2022 ,,
Köhnə tikili,5 / 5,34 m²,1,,65000,"Neftçi bazası ,Nərimanov r.",40.38264366149726,Bakı,49.87209320068359,19 Oktyabr 2022 ,,
Yeni tikili,16 / 17,98 m²,3,,129000,"Həzi Aslanov m.,Xətai r.,Köhnə Günəşli q.",40.39989258617802,Bakı,49.83979431395813,19 Oktyabr 2022 ,,
Yeni tikili,9 / 16,145 m²,3,,230000,"Zərifə Əliyeva adına park ,Binəqədi r.",40.37224994422943,Bakı,49.83342432222912,19 Oktyabr 2022 ,,
Yeni tikili,10 / 14,114 m²,3,,187000,"Binəqədi r.,8-ci mikrorayon q.",40.3863886681378,Bakı,49.80817391355895,13 Oktyabr 2022 ,,
Yeni tikili,10 / 18,83 m²,3,,184000,"Şah İsmayıl Xətai m.,Xətai r.",40.38264366149726,Bakı,49.87209320068359,04 Fevral 2023 ,,
Yeni tikili,11 / 15,136 m²,3,,295000,"Rəssamlıq Akademiyası ,Nəriman Nərimanov parkı ,Nəriman Nərimanov m.,Nərimanov r.",40.40554735588255,Bakı,49.87506508827209,19 Oktyabr 2022 ,,
Köhnə tikili,8 / 9,85 m²,3,var,123500,Yasamal r.,40.37862575802446,Bakı,49.83980533468834,19 Oktyabr 2022 ,,
Köhnə tikili,4 / 5,60 m²,2,,138000,"Texniki Universiteti ,Space TV ,Memarlıq və İnşaat Universiteti ,Hüseyn Cavid parkı ,Elmlər Akademiyası m.,Yasamal r.",40.36897235561476,Bakı,49.81641665647054,19 Oktyabr 2022 ,,
Yeni tikili,13 / 16,131 m²,3,,280000,"ASAN Xidmət №1 ,TQDK ,Nəsimi bazarı ,Nəsimi r.",40.37005679625383,Bakı,49.82993423938751,19 Oktyabr 2022 ,,
Yeni tikili,17 / 17,120 m²,3,,160000,"Nizami r.,8-ci kilometr q.",40.41393134886769,Bakı,49.94170963007977,19 Oktyabr 2022 ,,
Köhnə tikili,3 / 9,80 m²,3,,137000,"Binəqədi r.,9-cu mikrorayon q.",40.42793349999999,Bakı,49.81359980000002,19 Oktyabr 2022 ,,
Yeni tikili,13 / 13,55 m²,2,,54000,"Xətai r.,Həzi Aslanov q.",40.36822884896801,Bakı,49.813362210989,19 Oktyabr 2022 ,,
Yeni tikili,7 / 18,142 m²,3,,195000,"Səbail r.,Badamdar q.",40.37024250177031,Bakı,49.97394200996779,21 Oktyabr 2022 ,,
Köhnə tikili,3 / 5,75 m²,3,,180000,"Dostluq kinoteatrı ,Koala parkı ,Park Zorge ,Nəsimi r.",40.3861741000781,Bakı,49.85149383544922,12 Fevral 2023 ,,
Yeni tikili,9 / 13,118 m²,3,var,137000,Abşeron r.,40.37005679625383,Xırdalan,49.82993423938751,19 Oktyabr 2022 ,,
Yeni tikili,13 / 17,68 m²,3,var,145000,"Qara Qarayev m.,Nizami r.,8-ci kilometr q.",40.41740061397397,Bakı,49.92777585983276,19 Oktyabr 2022 ,,
Yeni tikili,11 / 16,94 m²,3,,170000,Nərimanov r.,40.4089166,Bakı,49.86399959999994,19 Oktyabr 2022 ,,
Yeni tikili,21 / 23,90 m²,2,,78000,"Yasamal r.,Yasamal q.",40.41082277366399,Bakı,49.80035062062916,19 Oktyabr 2022 ,,
Yeni tikili,9 / 17,114 m²,3,,255000,"Hüseyn Cavid parkı ,Texniki Universiteti ,Elmlər Akademiyası m.,Yasamal r.",40.39203732471822,Bakı,49.84165549278259,19 Oktyabr 2022 ,,
Yeni tikili,13 / 18,86 m²,3,var,171900,"Bakı Dövlət Universiteti ,Elmlər Akademiyası m.,Yasamal r.",40.37024250177031,Bakı,49.97394200996779,06 Noyabr 2022 ,var,var
Yeni tikili,16 / 19,123 m²,3,,265000,"Şah İsmayıl Xətai m.,Xətai r.,Ağ şəhər q.",40.38856031023877,Bakı,49.87125635147095,19 Oktyabr 2022 ,,
Köhnə tikili,1 / 5,50 m²,2,,80000,Binəqədi r.,40.47369535977774,Bakı,49.82554569843943,19 Oktyabr 2022 ,,
Yeni tikili,2 / 15,120 m²,3,,255000,"Nəriman Nərimanov m.,Nəriman Nərimanov parkı ,Nərimanov r.",40.39203732471822,Bakı,49.84165549278259,10 Oktyabr 2022 ,,
Yeni tikili,11 / 17,58 m²,2,,125000,"Azərbaycan turizm institutu ,Nərimanov r.",40.38499730777751,Bakı,49.83810424804688,19 Oktyabr 2022 ,,
Yeni tikili,3 / 18,111 m²,2,,180000,"Şah İsmayıl Xətai m.,Xətai r.",40.38264366149726,Bakı,49.87209320068359,19 Oktyabr 2022 ,,
Yeni tikili,16 / 17,126 m²,3,,162000,"Həzi Aslanov m.,Xətai r.",40.371510946835,Bakı,49.95338285124582,19 Oktyabr 2022 ,,
Köhnə tikili,2 / 9,35 m²,1,,72000,"Xalqlar Dostluğu m.,Nizami r.",40.37104456957248,Bakı,49.95549254560103,19 Oktyabr 2022 ,,
Yeni tikili,2 / 12,179 m²,4,,300000,"Azərbaycan turizm institutu ,Nərimanov r.",40.38873191798482,Bakı,49.95395421981815,19 Oktyabr 2022 ,,
Yeni tikili,7 / 19,55 m²,2,,115000,"Binəqədi r.,9-cu mikrorayon q.",40.3863886681378,Bakı,49.80817391355895,04 Oktyabr 2022 ,,
Yeni tikili,9 / 18,130 m²,3,var,224000,"Binəqədi r.,7-ci mikrorayon q.",40.427228007581,Bakı,49.84982617250768,05 Mart 2023 ,,
Yeni tikili,9 / 16,152 m²,4,var,300000,"Nəriman Nərimanov m.,Nərimanov r.",40.36822884896801,Bakı,49.813362210989,19 Oktyabr 2022 ,,
Yeni tikili,18 / 18,60 m²,2,,110000,"İnşaatçılar m.,Yasamal r.",40.37620916175648,Bakı,49.81580107043555,19 Noyabr 2022 ,,
Yeni tikili,10 / 18,135 m²,3,var,160000,"Səbail r.,Badamdar q.",40.37620916175648,Bakı,49.81580107043555,19 Oktyabr 2022 ,,
Köhnə tikili,1 / 9,86 m²,4,,159000,"Yasamal r.,Yeni Yasamal q.",40.37620916175648,Bakı,49.81580107043555,18 Mart 2023 ,,
Köhnə tikili,9 / 9,100 m²,3,var,150000,"Səbail r.,Bayıl q.",40.3479519333145,Bakı,49.83371477021926,24 Fevral 2023 ,,
Yeni tikili,5 / 21,88 m²,3,var,179000,"ASAN Xidmət №1 ,Tibb Universiteti ,Neftçi bazası ,Nərimanov r.",40.39989258617802,Bakı,49.83979431395813,04 Dekabr 2022 ,,
Yeni tikili,7 / 16,61 m²,2,var,78000,Xırdalan,40.44952531844341,Xırdalan,49.74666992977745,19 Oktyabr 2022 ,,
Köhnə tikili,3 / 5,80 m²,4,,159000,"Space TV ,Nərimanov heykəli ,Yasamal r.",40.36536243188481,Bakı,49.8198433138537,19 Oktyabr 2022 ,,
Yeni tikili,15 / 21,75 m²,2,,175000,"Tibb Universiteti ,Nəsimi r.",40.40952590477563,Bakı,49.84445571899418,19 Oktyabr 2022 ,,
Yeni tikili,8 / 19,192 m²,4,,412000,"Nəriman Nərimanov m.,Nəriman Nərimanov parkı ,Nərimanov r.",40.38873191798482,Bakı,49.95395421981815,19 Oktyabr 2022 ,,
Köhnə tikili,3 / 4,65 m²,2,,162000,"Ağ şəhər ,ASAN Xidmət №2 ,Xətai r.,Ağ şəhər q.",40.3813596,Bakı,49.8843435,19 Oktyabr 2022 ,,
Yeni tikili,12 / 15,89 m²,3,var,215000,"Şah İsmayıl Xətai m.,Xətai r.",40.38264366149726,Bakı,49.87209320068359,05 Fevral 2023 ,,
Yeni tikili,3 / 13,57.5 m²,2,,145000,"Şah İsmayıl Xətai m.,Xətai r.",40.38264366149726,Bakı,49.87209320068359,30 Sentyabr 2022 ,,
Köhnə tikili,4 / 5,50 m²,2,,85000,"Memar Əcəmi m.,Nəsimi r.,4-cü mikrorayon q.",40.41346690150499,Bakı,49.80792681232816,19 Oktyabr 2022 ,,
Yeni tikili,16 / 20,154 m²,4,,232000,"Azadlıq Prospekti m.,Binəqədi r.,8-ci mikrorayon q.",40.39205366748811,Bakı,49.84065234661102,19 Oktyabr 2022 ,,
Yeni tikili,17 / 20,153 m²,3,,200000,"ASAN Xidmət №1 ,Neftçi bazası ,Tibb Universiteti ,Nərimanov r.",40.39270174045908,Bakı,49.83329557619629,11 Oktyabr 2022 ,,
Köhnə tikili,9 / 9,60 m²,2,,90000,"Xalqlar Dostluğu m.,Nizami r.",40.40027766320492,Bakı,49.84006762504578,08 Oktyabr 2022 ,,
Yeni tikili,8 / 12,65 m²,3,var,97000,"Suraxanı r.,Qaraçuxur q.",40.408,Bakı,49.974,19 Oktyabr 2022 ,,
Köhnə tikili,2 / 9,85 m²,3,,113000,Xətai r.,40.37024250177031,Bakı,49.97394200996779,18 Oktyabr 2022 ,,
Yeni tikili,11 / 17,80.9 m²,3,,88990,Xırdalan,40.45929229176101,Xırdalan,49.72090495179324,19 Oktyabr 2022 ,,
Yeni tikili,16 / 23,400 m²,5,,900000,"Dövlət Statistika Komitəsi ,İzmir parkı ,M.Hüseynzadə parkı ,Nizami m.,Yasamal r.",40.3836661585519,Bakı,49.82338445758023,19 Oktyabr 2022 ,,
Yeni tikili,14 / 19,71 m²,2,yoxdur,118000,"Neftçilər m.,Nizami r.",40.38816806232006,Bakı,49.83243942260742,12 Noyabr 2022 ,,
Yeni tikili,3 / 16,130 m²,3,,290000,"Axundov bağı ,Dövlət İdarəçilik Akademiyası ,İqsadiyyat Universiteti ,İçəri Şəhər m.,Prezident parkı ,Qubernator parkı ,Nərimanov heykəli ,Sovetski ,M.Ə.Sabir parkı ,Səbail r.",40.39270174045908,Bakı,49.83329557619629,19 Oktyabr 2022 ,,
Yeni tikili,5 / 16,130 m²,4,,360000,"Bakı Slavyan Universiteti ,28 May m.,Azərbaycan Dillər Universiteti ,Neft Akademiyası ,Nəsimi r.",40.38080859350129,Bakı,49.95724192764082,19 Oktyabr 2022 ,,
Yeni tikili,8 / 18,72 m²,2,var,111990,"Neftçilər m.,Nizami r.,8-ci kilometr q.",40.39989258617802,Bakı,49.83979431395813,30 Oktyabr 2022 ,var,var
Yeni tikili,10 / 14,92 m²,3,,188000,"Nəriman Nərimanov m.,Nərimanov r.",40.40554735588255,Bakı,49.87506508827209,03 Oktyabr 2022 ,,
Yeni tikili,17 / 18,102 m²,3,,155000,Yasamal r.,40.37620916175648,Bakı,49.81580107043555,19 Oktyabr 2022 ,,
Yeni tikili,20 / 20,74 m²,2,,82500,"Yasamal r.,Yasamal q.",40.39187391698855,Bakı,49.79019255013863,19 Oktyabr 2022 ,,
Yeni tikili,3 / 17,77 m²,3,,168000,"Bakı Slavyan Universiteti ,Azərbaycan Dillər Universiteti ,Dostluq kinoteatrı ,Nəsimi r.",40.38600208964922,Bakı,49.84466624765304,19 Oktyabr 2022 ,,
Köhnə tikili,2 / 6,38 m²,2,,96000,"Bakı Slavyan Universiteti ,28 May m.,Azərbaycan Dillər Universiteti ,Neft Akademiyası ,Nərimanov r.",40.39989258617802,Bakı,49.83979431395813,29 Sentyabr 2022 ,,
Yeni tikili,4 / 12,85 m²,3,,120000,Yasamal r.,40.39062061106752,Bakı,49.78839553932372,19 Oktyabr 2022 ,,
Köhnə tikili,5 / 5,72 m²,3,,38000,Cəlilabad,39.2028993,Cəlilabad,48.53148020000003,19 Oktyabr 2022 ,,
Köhnə tikili,2 / 5,47 m²,3,,112000,"Elmlər Akademiyası m.,Yasamal r.",40.37829929401477,Bakı,49.81050706075816,28 Sentyabr 2022 ,,
Yeni tikili,13 / 19,135 m²,3,,209000,"Ayna Sultanova heykəli ,Binəqədi r.,8-ci mikrorayon q.",40.4135940750087,Bakı,49.84570026397705,19 Oktyabr 2022 ,,
Köhnə tikili,2 / 2,55 m²,2,,39000,"Binəqədi r.,Sulutəpə q.",40.38499730777751,Bakı,49.83810424804688,04 Oktyabr 2022 ,,
Yeni tikili,9 / 18,206 m²,4,,381000,"Bakı Slavyan Universiteti ,Azərbaycan Dillər Universiteti ,28 May m.,Nəsimi r.",40.40554735588255,Bakı,49.87506508827209,19 Oktyabr 2022 ,,
Yeni tikili,10 / 17,129 m²,3,,275000,"Tibb Universiteti ,Nərimanov r.",40.38385318444095,Bakı,49.8454213142395,15 Fevral 2023 ,,
Yeni tikili,14 / 17,83 m²,2,,185000,"ASAN Xidmət №1 ,Neftçi bazası ,Tibb Universiteti ,Nərimanov r.",40.40761426997893,Bakı,49.80840682983398,04 Noyabr 2022 ,,
Yeni tikili,4 / 16,150 m²,3,,390000,"Cavanşir körpüsü ,Şah İsmayıl Xətai m.,Xətai r.",40.38003671984769,Bakı,49.86737269836432,19 Oktyabr 2022 ,,
Yeni tikili,7 / 16,60 m²,2,,75000,Xırdalan,40.45155242060076,Xırdalan,49.7435639317382,19 Oktyabr 2022 ,,
Yeni tikili,5 / 17,60 m²,2,,112000,"Tibb Universiteti ,ASAN Xidmət №1 ,Nəsimi r.",40.39610085831571,Bakı,49.83199196430972,19 Oktyabr 2022 ,,
Yeni tikili,8 / 18,124 m²,3,var,195000,"Yasamal r.,Yeni Yasamal q.",40.3938692615085,Bakı,49.79517166137695,19 Oktyabr 2022 ,,
Köhnə tikili,4 / 5,75 m²,2,,130000,"28 May m.,Bakı Slavyan Universiteti ,Nəsimi r.",40.38356554206655,Bakı,49.84914737316898,19 Oktyabr 2022 ,,
Yeni tikili,7 / 20,180 m²,4,,390000,"Tibb Universiteti ,Nəsimi r.",40.39232579999999,Bakı,49.82880550000004,27 Fevral 2023 ,,
Yeni tikili,8 / 17,117 m²,3,var,186000,"Yasamal r.,Yeni Yasamal q.",40.39986662852357,Bakı,49.80057899475097,19 Oktyabr 2022 ,,
Yeni tikili,5 / 16,152 m²,3,,197600,"İnşaatçılar m.,Yasamal r.",40.39584916837152,Bakı,49.85226631164551,19 Oktyabr 2022 ,,
Yeni tikili,11 / 12,96 m²,3,,195000,"Memar Əcəmi m.,Nəsimi r.",40.37620916175648,Bakı,49.81580107043555,19 Oktyabr 2022 ,,
Köhnə tikili,7 / 9,65 m²,2,var,90000,"Yasamal r.,Yeni Yasamal q.",40.39061957433251,Bakı,49.84664440155029,19 Oktyabr 2022 ,,
Yeni tikili,15 / 17,100 m²,2,,140000,"ASAN Xidmət №3 ,Yasamal r.",40.37649764183499,Bakı,49.84163403511051,29 Sentyabr 2022 ,,
Yeni tikili,11 / 18,100 m²,3,var,165000,Nizami r.,40.4087847,Bakı,49.92876260000003,19 Oktyabr 2022 ,var,var
Yeni tikili,9 / 23,155 m²,3,var,460000,"İncəsənət və Mədəniyyət Un. ,Elmlər Akademiyası m.,Yasamal r.,Yasamal q.",40.37024250177031,Bakı,49.97394200996779,15 Noyabr 2022 ,,
Yeni tikili,11 / 16,185 m²,4,,388000,"Bayıl parkı ,Səbail r.,Bayıl q.",40.3651072257085,Bakı,49.81950849294662,26 Dekabr 2022 ,,
Yeni tikili,16 / 18,200 m²,4,,375000,"Nəsimi bazarı ,Koala parkı ,Nəsimi r.",40.38613323957885,Bakı,49.82919931411747,03 Fevral 2023 ,,
Yeni tikili,6 / 19,80 m²,2,var,175000,Nərimanov r.,40.38421276815505,Bakı,49.8394775390625,25 Noyabr 2022 ,,
Köhnə tikili,5 / 9,110 m²,5,,150000,"Əhmədli m.,Xətai r.",40.39203732471822,Bakı,49.84165549278259,27 Fevral 2023 ,,
Yeni tikili,14 / 15,140 m²,3,,190500,"Təhsil Nazirliyi ,Nərimanov r.",40.40761426997893,Bakı,49.80840682983398,21 Dekabr 2022 ,,
Yeni tikili,14 / 18,100 m²,2,,140000,"Bakı Dövlət Universiteti ,Elmlər Akademiyası m.,Yasamal r.",40.38930339224178,Bakı,49.85948536585312,19 Oktyabr 2022 ,,
Yeni tikili,12 / 14,170 m²,3,,260000,"M.Hüseynzadə parkı ,Sevil Qazıyeva parkı ,İzmir parkı ,Rusiya səfirliyi ,Yasamal r.,Yasamal q.",40.38623094295786,Bakı,49.82824901066442,19 Oktyabr 2022 ,,
Yeni tikili,7 / 22,186 m²,4,,335000,"28 May m.,Bakı Slavyan Universiteti ,Şərq bazarı ,Nəsimi r.",40.40554735588255,Bakı,49.87506508827209,19 Oktyabr 2022 ,,
Yeni tikili,11 / 16,140 m²,4,var,149000,Abşeron r.,40.37005679625383,Xırdalan,49.82993423938751,19 Noyabr 2022 ,,
Yeni tikili,13 / 16,60 m²,2,,114999,"ASAN Xidmət №1 ,Tibb Universiteti ,Nərimanov r.",40.37024250177031,Bakı,49.97394200996779,27 Oktyabr 2022 ,,
Yeni tikili,14 / 17,63 m²,2,var,97000,Nizami r.,40.4087847,Bakı,49.92876260000003,19 Oktyabr 2022 ,var,var
Yeni tikili,3 / 14,110 m²,3,,220000,"Elmlər Akademiyası m.,Hüseyn Cavid parkı ,Bakı Dövlət Universiteti ,Yasamal r.",40.37533198376934,Bakı,49.81793688867354,19 Oktyabr 2022 ,,
Köhnə tikili,6 / 9,70 m²,2,,90500,"Binəqədi r.,9-cu mikrorayon q.",40.39061957433251,Bakı,49.84664440155029,27 Sentyabr 2022 ,,
Yeni tikili,3 / 7,135 m²,3,,265000,"Xətai r.,Ağ şəhər q.",40.3864601228786,Bakı,49.89195227622986,19 Oktyabr 2022 ,,
Yeni tikili,3 / 6,76 m²,2,var,85000,"Xətai r.,Həzi Aslanov q.",40.39989258617802,Bakı,49.83979431395813,21 Noyabr 2022 ,,
Yeni tikili,7 / 16,107.6 m²,2,var,118305,"Suraxanı r.,Massiv V q.",40.37988129117782,Bakı,49.9824070930481,07 Mart 2023 ,,
Yeni tikili,5 / 17,60 m²,2,,117800,"Tibb Universiteti ,Nəsimi r.",40.36942330420567,Bakı,49.82101321220402,07 Yanvar 2023 ,,
Köhnə tikili,3 / 4,55 m²,2,,95000,"Gənclik m.,Respublika stadionu ,Nərimanov r.",40.37649764183499,Bakı,49.84163403511051,05 Oktyabr 2022 ,,
Yeni tikili,5 / 16,66.7 m²,1,,70014,"Suraxanı r.,Massiv V q.",40.37988129117782,Bakı,49.9824070930481,13 Mart 2023 ,,
Köhnə tikili,4 / 5,44 m²,2,var,100000,"Dostluq kinoteatrı ,Azərbaycan Dillər Universiteti ,Bakı Slavyan Universiteti ,Koala parkı ,Nəsimi r.",40.36942330420567,Bakı,49.82101321220402,02 Noyabr 2022 ,,
Yeni tikili,13 / 16,134 m²,3,,172000,Sabunçu r.,40.40789650401813,Bakı,49.9743023144221,19 Oktyabr 2022 ,,
Köhnə tikili,2 / 9,45 m²,1,,71000,"Neftçilər m.,Nizami r.,8-ci kilometr q.",40.4107382,Bakı,49.9384708,23 Noyabr 2022 ,,
Yeni tikili,8 / 16,60 m²,2,var,96000,"Neftçilər m.,Nizami r.",40.40986188667103,Bakı,49.94269324411052,19 Oktyabr 2022 ,yoxdur,var
Köhnə tikili,5 / 5,39 m²,2,,102000,"Beşmərtəbə ,Nizami m.,Yasamal r.,Yasamal q.",40.38218599850386,Bakı,49.81046676635742,19 Oktyabr 2022 ,,
Yeni tikili,16 / 17,157 m²,3,,240000,Nərimanov r.,40.38535688538403,Bakı,49.82866287231445,19 Oktyabr 2022 ,,
Yeni tikili,10 / 12,178 m²,4,,249000,Nərimanov r.,40.37620916175648,Bakı,49.81580107043555,19 Oktyabr 2022 ,,
Köhnə tikili,4 / 5,75 m²,3,var,115000,"Memar Əcəmi m.,Nəsimi r.",40.38816806232006,Bakı,49.83243942260742,27 Oktyabr 2022 ,,
Köhnə tikili,5 / 9,100 m²,4,var,148000,"İnşaatçılar m.,Yasamal r.",40.39061957433251,Bakı,49.84664440155029,19 Oktyabr 2022 ,,
Yeni tikili,18 / 21,116 m²,3,,240000,"Bakmil m.,Nərimanov r.",40.38873191798482,Bakı,49.95395421981815,19 Oktyabr 2022 ,,
Yeni tikili,5 / 18,121 m²,3,var,156000,"Yasamal r.,Yeni Yasamal q.",40.39375634933801,Bakı,49.79622503872262,19 Oktyabr 2022 ,,
Yeni tikili,6 / 16,119 m²,3,,245000,"Hüseyn Cavid parkı ,Sovetski ,Texniki Universiteti ,Nərimanov heykəli ,Elmlər Akademiyası m.,Yasamal r.",40.37093916351538,Bakı,49.82099343374534,19 Oktyabr 2022 ,,
Köhnə tikili,2 / 5,30 m²,1,,69000,"Zoopark ,Dostluq kinoteatrı ,Nəsimi r.",40.39270174045908,Bakı,49.83329557619629,19 Oktyabr 2022 ,,
Yeni tikili,6 / 16,73.1 m²,1,var,76786,"Suraxanı r.,Massiv V q.",40.37988129117782,Bakı,49.9824070930481,Dünən 10:00 ,,
Köhnə tikili,2 / 3,72 m²,3,,160000,"İçəri Şəhər m.,Qubernator parkı ,Dövlət İdarəçilik Akademiyası ,İqsadiyyat Universiteti ,Prezident parkı ,Axundov bağı ,İçəri Şəhər ,M.Ə.Sabir parkı ,Azneft meydanı ,Nəsimi r.",40.36609875518228,Bakı,49.83178400478341,19 Oktyabr 2022 ,,
Yeni tikili,11 / 16,136 m²,3,,295000,"Rəssamlıq Akademiyası ,Nəriman Nərimanov parkı ,Nəriman Nərimanov m.,Nərimanov r.",40.40606433283491,Bakı,49.86231650326251,19 Oktyabr 2022 ,,
Köhnə tikili,3 / 3,80 m²,3,,220000,"Nizami kinoteatrı ,Sahil m.,Malokan bağı ,Fontanlar bağı ,Qış parkı ,Milli Konservatoriya ,Nəsimi r.",40.37370344120654,Bakı,49.84040694816825,19 Oktyabr 2022 ,,
Yeni tikili,6 / 20,127.4 m²,3,,484000,"Nərimanov heykəli ,Sovetski ,Axundov bağı ,Prezident parkı ,Şəlalə parkı ,Dövlət İdarəçilik Akademiyası ,İçəri Şəhər m.,Yasamal r.,Yasamal q.",40.37649764183499,Bakı,49.84163403511051,19 Dekabr 2022 ,,
Yeni tikili,2 / 15,58 m²,2,,76000,Xətai r.,40.39026819642278,Bakı,49.95772004127506,19 Oktyabr 2022 ,,
Yeni tikili,10 / 20,180 m²,4,var,334000,"Tibb Universiteti ,Yasamal r.",40.38816806232006,Bakı,49.83243942260742,01 Noyabr 2022 ,,
Yeni tikili,17 / 20,90 m²,2,,135000,"Avtovağzal m.,Yasamal r.,Yasamal q.",40.41815377451449,Bakı,49.798095616919,19 Oktyabr 2022 ,,
Yeni tikili,15 / 19,92 m²,2,,135000,"20 Yanvar m.,Yasamal r.",40.37024250177031,Bakı,49.97394200996779,28 Sentyabr 2022 ,,
Yeni tikili,10 / 18,90 m²,3,yoxdur,185000,"Şah İsmayıl Xətai m.,Xətai r.",40.36942330420567,Bakı,49.82101321220402,07 Fevral 2023 ,,
Yeni tikili,7 / 17,83 m²,3,,145000,"Botanika bağı ,Səbail r.,Badamdar q.",40.38341187453192,Bakı,49.82710719108582,15 Noyabr 2022 ,,
Yeni tikili,2 / 6,70 m²,3,,78000,Xırdalan,40.38855213843042,Xırdalan,49.87120270729065,19 Oktyabr 2022 ,,
Yeni tikili,5 / 6,130 m²,4,,86000,Xırdalan,40.45511190000001,Xırdalan,49.74459389999993,19 Oktyabr 2022 ,,
Yeni tikili,4 / 5,43 m²,2,,61000,Nizami r.,40.37649764183499,Bakı,49.84163403511051,19 Oktyabr 2022 ,,
Köhnə tikili,3 / 9,70 m²,3,var,127000,"Təhsil Nazirliyi ,Xətai r.",40.38855213843042,Bakı,49.87120270729065,19 Oktyabr 2022 ,,
Yeni tikili,4 / 20,192 m²,3,,750000,"ASAN Xidmət №2 ,Şah İsmayıl Xətai m.,Xətai r.",40.39584916837152,Bakı,49.85226631164551,19 Oktyabr 2022 ,,
Yeni tikili,8 / 8,76 m²,2,,60000,Xırdalan,40.45511190000001,Xırdalan,49.74459389999993,19 Oktyabr 2022 ,,
Yeni tikili,12 / 16,77 m²,1,,130000,"Nəsimi bazarı ,Koala parkı ,Park Zorge ,Nəsimi r.",40.38855213843042,Bakı,49.87120270729065,19 Oktyabr 2022 ,,
Yeni tikili,2 / 7,50 m²,2,,58000,Xırdalan,40.38855213843042,Xırdalan,49.87120270729065,19 Oktyabr 2022 ,,
Köhnə tikili,1 / 3,56 m²,2,,120000,"Mərkəzi Univermaq ,M.Ə.Sabir parkı ,Beşmərtəbə ,İqsadiyyat Universiteti ,İçəri Şəhər m.,Yasamal r.",40.37221537144323,Bakı,49.83198532782217,19 Oktyabr 2022 ,,
Yeni tikili,7 / 16,55 m²,2,var,90000,"Həzi Aslanov m.,Xətai r.",40.38855213843042,Bakı,49.87120270729065,19 Oktyabr 2022 ,,
Yeni tikili,8 / 19,70 m²,2,yoxdur,132000,"Neftçilər m.,Nizami r.",40.41127966205816,Bakı,49.94728398442605,19 Oktyabr 2022 ,,
Yeni tikili,9 / 17,111 m²,3,,231000,"Tibb Universiteti ,ASAN Xidmət №1 ,Nəsimi r.",40.39205366748811,Bakı,49.84065234661102,10 Oktyabr 2022 ,,
Yeni tikili,4 / 17,92 m²,3,yoxdur,166000,"Xətai r.,Həzi Aslanov q.",40.3807186,Bakı,49.92525120000005,22 Oktyabr 2022 ,,
Yeni tikili,13 / 17,154 m²,3,var,200000,"Botanika bağı ,Səbail r.,Badamdar q.",40.40554735588255,Bakı,49.87506508827209,18 Noyabr 2022 ,,
Yeni tikili,2 / 15,58 m²,2,,76000,"Xətai r.,Həzi Aslanov q.",40.39989258617802,Bakı,49.83979431395813,30 Oktyabr 2022 ,,
Yeni tikili,19 / 19,67 m²,1,,87000,Nərimanov r.,40.40606433283491,Bakı,49.86231650326251,19 Oktyabr 2022 ,,
Yeni tikili,11 / 14,143 m²,3,var,500000,"M.Ə.Sabir parkı ,İçəri Şəhər ,Azərbaycan kinoteatrı ,İqsadiyyat Universiteti ,İçəri Şəhər m.,Fontanlar bağı ,Qubernator parkı ,Dövlət İdarəçilik Akademiyası ,Mərkəzi Univermaq ,Azneft meydanı ,Axundov bağı ,Səbail r.",40.3651072257085,Bakı,49.81950849294662,13 Mart 2023 ,,
Yeni tikili,9 / 18,188 m²,4,,290000,"Şah İsmayıl Xətai m.,Xətai r.",40.38535688538403,Bakı,49.82866287231445,10 Fevral 2023 ,,
Köhnə tikili,4 / 9,105 m²,4,var,128000,"Xətai r.,Köhnə Günəşli q.",40.35752976717323,Bakı,49.96785079799746,Bugün 11:58 ,,
Köhnə tikili,9 / 9,105 m²,5,,122000,"Koroğlu m.,Nizami r.,8-ci kilometr q.",40.39989258617802,Bakı,49.83979431395813,19 Oktyabr 2022 ,,
Köhnə tikili,3 / 9,80 m²,3,,127000,Xətai r.,40.38613323957885,Bakı,49.82919931411747,30 Sentyabr 2022 ,,
Yeni tikili,15 / 20,73 m²,1,,105000,"Azadlıq Prospekti m.,Binəqədi r.,7-ci mikrorayon q.",40.39205366748811,Bakı,49.84065234661102,17 Oktyabr 2022 ,,
Yeni tikili,12 / 17,60 m²,2,,140000,"Səbail r.,Badamdar q.",40.39203732471822,Bakı,49.84165549278259,27 Sentyabr 2022 ,,
Yeni tikili,8 / 18,65 m²,2,,112000,Nizami r.,40.39026819642278,Bakı,49.95772004127506,18 Noyabr 2022 ,,
Köhnə tikili,7 / 9,96 m²,4,var,164500,"Bakı Dövlət Universiteti ,Memarlıq və İnşaat Universiteti ,Yasamal r.",40.37862575802446,Bakı,49.83980533468834,01 Yanvar 2023 ,,
Yeni tikili,8 / 17,65 m²,3,yoxdur,105000,"Ukrayna dairəsi ,Həzi Aslanov m.,Xətai r.",40.36942330420567,Bakı,49.82101321220402,19 Oktyabr 2022 ,,
Yeni tikili,5 / 7,88.5 m²,3,var,105000,"Abşeron r.,Masazır q.",40.49185094555289,Bakı,49.75366323871008,18 Noyabr 2022 ,,
Yeni tikili,15 / 17,108.8 m²,2,var,212000,"ASAN Xidmət №1 ,Tibb Universiteti ,Neftçi bazası ,Nəsimi r.",40.40554735588255,Bakı,49.87506508827209,18 Noyabr 2022 ,,
Yeni tikili,10 / 10,190 m²,5,var,269900,"İnşaatçılar m.,Yasamal r.",40.39989258617802,Bakı,49.83979431395813,10 Dekabr 2022 ,,
Yeni tikili,16 / 17,72 m²,2,var,118000,"Həzi Aslanov m.,Xətai r.",40.3709789333867,Bakı,49.95558443042722,19 Oktyabr 2022 ,var,var
Köhnə tikili,9 / 9,40 m²,2,var,78900,"Zərifə Əliyeva adına park ,Nəsimi r.,4-cü mikrorayon q.",40.38816806232006,Bakı,49.83243942260742,23 Oktyabr 2022 ,,
Yeni tikili,3 / 17,113 m²,3,var,190000,"Binəqədi r.,7-ci mikrorayon q.",40.39205366748811,Bakı,49.84065234661102,Bugün 14:11 ,,
Yeni tikili,12 / 17,85 m²,3,,180000,"ASAN Xidmət №1 ,Neftçi bazası ,Tibb Universiteti ,Nəsimi r.",40.40554735588255,Bakı,49.87506508827209,04 Noyabr 2022 ,,
Yeni tikili,14 / 20,58 m²,2,,89500,"Xətai r.,Həzi Aslanov q.",40.41913797142315,Bakı,49.92514979797704,19 Oktyabr 2022 ,,
Yeni tikili,12 / 17,174 m²,4,,330000,"Park Zorge ,Koala parkı ,Dostluq kinoteatrı ,Rusiya səfirliyi ,Nəsimi bazarı ,Nəsimi r.",40.39007604296815,Bakı,49.83774575893552,19 Oktyabr 2022 ,,
Köhnə tikili,1 / 3,40 m²,2,,68000,"Sahil m.,Xalça Muzeyi ,Sahil bağı ,Malokan bağı ,Fontanlar bağı ,Nizami kinoteatrı ,Nəsimi r.",40.37081537004331,Bakı,49.84339671704105,19 Oktyabr 2022 ,,
Yeni tikili,11 / 22,125 m²,3,,168000,"Avtovağzal m.,Yasamal r.,Yasamal q.",40.41575483732011,Bakı,49.79652690739096,19 Oktyabr 2022 ,,
Yeni tikili,3 / 22,67 m²,1,,100000,Nərimanov r.,40.39045008382347,Bakı,49.830508675731,19 Oktyabr 2022 ,,
Yeni tikili,8 / 9,178 m²,4,,312000,"ASAN Xidmət №1 ,Nəsimi bazarı ,Nəsimi r.",40.3975879443914,Bakı,49.83790355297855,19 Oktyabr 2022 ,,
Yeni tikili,1 / 6,74 m²,2,,65000,"Abşeron r.,Masazır q.",40.49185094555289,Bakı,49.75366323871008,18 Noyabr 2022 ,,
Yeni tikili,9 / 15,108 m²,2,,185000,"Təhsil Nazirliyi ,Nərimanov r.",40.39111874208582,Bakı,49.85755982212054,01 Dekabr 2022 ,,
Yeni tikili,8 / 17,65 m²,3,,110000,"Ukrayna dairəsi ,Əhmədli m.,Xətai r.",40.37996315645579,Bakı,49.95230286360446,21 Oktyabr 2022 ,,
Yeni tikili,11 / 14,170 m²,4,,260000,"M.Hüseynzadə parkı ,Sevil Qazıyeva parkı ,İzmir parkı ,Rusiya səfirliyi ,Nizami m.,Yasamal r.",40.37649764183499,Bakı,49.84163403511051,19 Oktyabr 2022 ,,
Yeni tikili,15 / 19,157 m²,3,,135000,"Xətai r.,Əhmədli q.",40.38896749455778,Bakı,49.96443003447146,19 Oktyabr 2022 ,,
Yeni tikili,6 / 10,85 m²,3,,86000,Xırdalan,40.38855213843042,Xırdalan,49.87120270729065,19 Oktyabr 2022 ,,
Yeni tikili,4 / 6,137 m²,4,var,187000,"Səbail r.,Bayıl q.",40.39270174045908,Bakı,49.83329557619629,19 Oktyabr 2022 ,,
Yeni tikili,5 / 16,61 m²,2,var,107000,"Xalqlar Dostluğu m.,Nizami r.,8-ci kilometr q.",40.39298300258589,Bakı,49.95403544813546,19 Oktyabr 2022 ,,
Köhnə tikili,5 / 5,47 m²,2,,77000,"Azadlıq Prospekti m.,Binəqədi r.,7-ci mikrorayon q.",40.42576717413449,Bakı,49.84178754912114,19 Oktyabr 2022 ,,
Yeni tikili,6 / 14,110 m²,3,var,191000,"Gənclik m.,Nəsimi r.",40.37862575802446,Bakı,49.83980533468834,20 Noyabr 2022 ,,
Yeni tikili,13 / 17,250 m²,4,,680000,"Nəriman Nərimanov m.,Nəriman Nərimanov parkı ,Nərimanov r.",40.38873191798482,Bakı,49.95395421981815,19 Oktyabr 2022 ,,
Yeni tikili,12 / 19,126 m²,3,,350000,"Şah İsmayıl Xətai m.,Xətai r.",40.3843596,Bakı,49.87381000000005,14 Oktyabr 2022 ,,
Yeni tikili,7 / 17,75 m²,2,,123000,"Park Zorge ,Nəsimi bazarı ,Koala parkı ,Tibb Universiteti ,Nəsimi r.",40.36942330420567,Bakı,49.82101321220402,06 Noyabr 2022 ,,
Yeni tikili,17 / 19,108 m²,3,,137000,"Həzi Aslanov m.,Xətai r.",40.37080880489071,Bakı,49.94672298431396,19 Oktyabr 2022 ,,
Köhnə tikili,5 / 5,45 m²,2,,50000,Nərimanov r.,40.40952590477563,Bakı,49.84445571899418,21 Noyabr 2022 ,,
Yeni tikili,12 / 16,100 m²,3,,225000,"Tibb Universiteti ,Park Zorge ,Nəsimi r.",40.39584916837152,Bakı,49.85226631164551,25 Oktyabr 2022 ,,
Yeni tikili,4 / 16,133 m²,3,,385000,"Təhsil Nazirliyi ,Nərimanov r.",40.37005679625383,Bakı,49.82993423938751,19 Oktyabr 2022 ,,
Yeni tikili,3 / 16,80 m²,2,,132000,"Nəsimi bazarı ,Koala parkı ,Nəsimi r.",40.38341187453192,Bakı,49.82710719108582,19 Oktyabr 2022 ,,
Yeni tikili,7 / 7,120 m²,3,,234000,"Ağ şəhər ,Xətai r.",40.37971756371439,Bakı,49.88608378845221,19 Oktyabr 2022 ,,
Yeni tikili,9 / 16,125 m²,3,var,230000,"Rəssamlıq Akademiyası ,Nərimanov r.",40.39816149998397,Bakı,49.84086155891422,05 Oktyabr 2022 ,var,var
Yeni tikili,8 / 20,58.5 m²,2,,155000,"Nəsimi bazarı ,ASAN Xidmət №1 ,Nəsimi r.",40.37512451826901,Bakı,49.81611013412476,19 Oktyabr 2022 ,,
Yeni tikili,3 / 21,135 m²,4,,330000,Nərimanov r.,40.38873191798482,Bakı,49.95395421981815,19 Oktyabr 2022 ,,
Köhnə tikili,9 / 9,66 m²,3,var,62000,"Xətai r.,Həzi Aslanov q.",40.36639880847979,Bakı,49.94969487190247,14 Mart 2023 ,,
Yeni tikili,2 / 17,97 m²,3,,255000,"Nəriman Nərimanov m.,Nərimanov r.",40.37005679625383,Bakı,49.82993423938751,19 Oktyabr 2022 ,,
Yeni tikili,19 / 21,205 m²,4,,385000,"Şah İsmayıl Xətai m.,Xətai r.",40.38613323957885,Bakı,49.82919931411747,19 Oktyabr 2022 ,,
Yeni tikili,9 / 17,57 m²,2,,106000,"Neftçilər m.,Nizami r.,8-ci kilometr q.",40.4107382,Bakı,49.9384708,30 Sentyabr 2022 ,,
Yeni tikili,5 / 13,120 m²,3,,195000,"Memar Əcəmi m.,Nəsimi r.,2-ci mikrorayon q.",40.39414959485713,Bakı,49.7993946075439,17 Yanvar 2023 ,,
Köhnə tikili,3 / 4,50 m²,2,,95000,"Gənclik m.,Respublika stadionu ,Nərimanov r.",40.40027766320492,Bakı,49.84006762504578,19 Oktyabr 2022 ,,
Yeni tikili,10 / 17,102 m²,3,var,165000,"Həzi Aslanov m.,Xətai r.,Həzi Aslanov q.",40.37167523922052,Bakı,49.9533748626709,27 Dekabr 2022 ,,
Yeni tikili,12 / 14,70 m²,2,,108000,"Qara Qarayev m.,Nizami r.",40.37742938831814,Bakı,49.80915784835819,19 Oktyabr 2022 ,,
Yeni tikili,2 / 19,126 m²,3,,138000,Xətai r.,40.39414959485713,Bakı,49.7993946075439,19 Oktyabr 2022 ,,
Yeni tikili,16 / 17,97 m²,3,,121500,"Binəqədi r.,9-cu mikrorayon q.",40.38816806232006,Bakı,49.83243942260742,30 Oktyabr 2022 ,,
Yeni tikili,12 / 17,100 m²,3,var,229000,"Tibb Universiteti ,Nəsimi bazarı ,ASAN Xidmət №1 ,Park Zorge ,Nəsimi r.",40.37024250177031,Bakı,49.97394200996779,01 Noyabr 2022 ,,
Yeni tikili,14 / 17,65 m²,2,,98000,"Həzi Aslanov m.,Xətai r.,Əhmədli q.",40.37108531279791,Bakı,49.95621890209966,19 Oktyabr 2022 ,,
Yeni tikili,16 / 17,150 m²,3,var,325000,"ASAN Xidmət №2 ,Şah İsmayıl Xətai m.,Xətai r.",40.38264366149726,Bakı,49.87209320068359,19 Oktyabr 2022 ,,
Köhnə tikili,8 / 9,80 m²,2,,150000,"Azadlıq Prospekti m.,Binəqədi r.,8-ci mikrorayon q.",40.39205366748811,Bakı,49.84065234661102,19 Oktyabr 2022 ,,
Yeni tikili,8 / 17,124 m²,4,,180000,"Həzi Aslanov m.,Xətai r.,Əhmədli q.",40.37045591741983,Bakı,49.95199174069219,19 Oktyabr 2022 ,,
Yeni tikili,19 / 19,150 m²,4,,153000,"Tibb Universiteti ,ASAN Xidmət №1 ,Nərimanov r.",40.38613323957885,Bakı,49.82919931411747,19 Oktyabr 2022 ,,
Yeni tikili,16 / 17,96 m²,3,var,128900,Xətai r.,40.36942330420567,Bakı,49.82101321220402,24 Oktyabr 2022 ,var,var
Köhnə tikili,5 / 5,80 m²,4,,150000,"Gənclik m.,Nərimanov r.",40.40470108988175,Bakı,49.85438656289056,19 Oktyabr 2022 ,,
Yeni tikili,17 / 19,71 m²,2,,137000,"Neftçilər m.,Nizami r.",40.38930339224178,Bakı,49.85948536585312,04 Noyabr 2022 ,,
Yeni tikili,10 / 12,96 m²,3,,185000,"Xalqlar Dostluğu m.,Nizami r.",40.39832939617313,Bakı,49.9538650813511,19 Oktyabr 2022 ,,
Yeni tikili,9 / 16,80 m²,3,yoxdur,177000,"Azərbaycan turizm institutu ,Təhsil Nazirliyi ,Nərimanov r.",40.38816806232006,Bakı,49.83243942260742,18 Noyabr 2022 ,,
Yeni tikili,8 / 19,82 m²,3,,150000,"Həzi Aslanov m.,Xətai r.,Həzi Aslanov q.",40.37167523922052,Bakı,49.9533748626709,03 Fevral 2023 ,,
Köhnə tikili,1 / 9,80 m²,3,,147000,"Bakı Asiya Universiteti ,8 Noyabr m.,Nəsimi r.",40.40098956345485,Bakı,49.8193719478075,19 Oktyabr 2022 ,,
Yeni tikili,5 / 19,150 m²,3,,225000,"ASAN Xidmət №3 ,Yasamal bazarı ,Yasamal r.,Yasamal q.",40.37900963810223,Bakı,49.80477815208678,19 Oktyabr 2022 ,,
Köhnə tikili,4 / 9,130 m²,5,,158000,"Əhmədli m.,Xətai r.,Əhmədli q.",40.39989258617802,Bakı,49.83979431395813,19 Oktyabr 2022 ,,
Yeni tikili,12 / 15,100 m²,3,var,225000,"Nəsimi bazarı ,ASAN Xidmət №1 ,Tibb Universiteti ,Nəsimi r.",40.39989258617802,Bakı,49.83979431395813,21 Noyabr 2022 ,,
Köhnə tikili,9 / 9,75 m²,2,var,77000,"Suraxanı r.,Yeni Günəşli q.",40.39989258617802,Bakı,49.83979431395813,27 Oktyabr 2022 ,var,var
Yeni tikili,15 / 17,130 m²,3,,186000,"Həzi Aslanov m.,Xətai r.,Əhmədli q.",40.36999416371186,Bakı,49.95276421688848,19 Oktyabr 2022 ,,
Yeni tikili,4 / 14,160 m²,4,,380000,"8 Noyabr m.,Nəsimi r.",40.39683246906856,Bakı,49.81604018783568,19 Oktyabr 2022 ,,
Yeni tikili,6 / 16,66 m²,2,,205000,"Elmlər Akademiyası m.,Hüseyn Cavid parkı ,Bakı Dövlət Universiteti ,Yasamal r.",40.40761426997893,Bakı,49.80840682983398,19 Oktyabr 2022 ,,
Köhnə tikili,5 / 5,40 m²,1,var,49000,"Əhmədli m.,Xətai r.",40.41932422288878,Bakı,49.92522239685059,19 Oktyabr 2022 ,,
Yeni tikili,6 / 10,67 m²,2,,103000,"Həzi Aslanov m.,Xətai r.,Əhmədli q.",40.36779603506538,Bakı,49.95617973013231,19 Oktyabr 2022 ,,
Yeni tikili,10 / 16,171 m²,4,,450000,"Dostluq kinoteatrı ,Azərbaycan Dillər Universiteti ,Bakı Slavyan Universiteti ,Koala parkı ,Nəsimi r.",40.40554735588255,Bakı,49.87506508827209,19 Yanvar 2023 ,,
Köhnə tikili,8 / 9,72 m²,3,,125000,"Sovetski ,Nərimanov heykəli ,Yasamal r.",40.37533198376934,Bakı,49.81793688867354,19 Oktyabr 2022 ,,
Yeni tikili,14 / 18,102 m²,3,yoxdur,160500,Xətai r.,40.37862575802446,Bakı,49.83980533468834,02 Mart 2023 ,,
Yeni tikili,3 / 14,63 m²,2,,110000,"Əhmədli m.,Xətai r.,Əhmədli q.",40.41913797142315,Bakı,49.92514979797704,19 Oktyabr 2022 ,,
Köhnə tikili,4 / 5,38 m²,2,,95000,"İncəsənət və Mədəniyyət Un. ,Nizami m.,Yasamal r.",40.36822884896801,Bakı,49.813362210989,19 Oktyabr 2022 ,,
Yeni tikili,16 / 17,105 m²,3,var,259000,"Elmlər Akademiyası m.,Yasamal r.",40.37801785314237,Bakı,49.81117486953735,18 Noyabr 2022 ,,
Köhnə tikili,2 / 5,32 m²,1,,73000,"Zoopark ,Dostluq kinoteatrı ,Nərimanov r.",40.40554735588255,Bakı,49.87506508827209,19 Oktyabr 2022 ,,
Köhnə tikili,5 / 5,70 m²,3,,120000,Nərimanov r.,40.39205366748811,Bakı,49.84065234661102,19 Oktyabr 2022 ,,
Köhnə tikili,4 / 9,58 m²,2,var,66000,"Xətai r.,Həzi Aslanov q.",40.39989258617802,Bakı,49.83979431395813,05 Noyabr 2022 ,,
Yeni tikili,5 / 20,60 m²,2,,118000,"Tibb Universiteti ,Nərimanov r.",40.40761426997893,Bakı,49.80840682983398,09 Dekabr 2022 ,,
Yeni tikili,12 / 16,100 m²,3,,225000,"Nəsimi bazarı ,Koala parkı ,Dostluq kinoteatrı ,Park Zorge ,Nəsimi r.",40.39338967551327,Bakı,49.84080791473389,19 Oktyabr 2022 ,,
Yeni tikili,17 / 18,65.1 m²,2,var,92000,Xırdalan,40.38855213843042,Xırdalan,49.87120270729065,19 Oktyabr 2022 ,,
Köhnə tikili,3 / 5,100 m²,4,,127000,"Səbail r.,Badamdar q.",40.40027766320492,Bakı,49.84006762504578,25 Sentyabr 2022 ,,
Yeni tikili,5 / 17,65 m²,3,,105000,"Əhmədli m.,Xətai r.,Əhmədli q.",40.37167523922052,Bakı,49.9533748626709,20 Noyabr 2022 ,,
Yeni tikili,12 / 18,110 m²,2,var,200000,Səbail r.,40.38264366149726,Bakı,49.87209320068359,19 Oktyabr 2022 ,,
Yeni tikili,16 / 17,64 m²,2,,109000,"Əhmədli m.,Xətai r.",40.38930339224178,Bakı,49.85948536585312,19 Oktyabr 2022 ,,
Yeni tikili,11 / 18,197 m²,4,,352000,"Sirk ,Azərbaycan Dillər Universiteti ,Zabitlər parkı ,Bakı Slavyan Universiteti ,Qış parkı ,Nəsimi r.",40.38213689298134,Bakı,49.83910691822636,19 Oktyabr 2022 ,,
Yeni tikili,7 / 16,60 m²,3,var,160000,"Bakı Asiya Universiteti ,8 Noyabr m.,Nəsimi r.",40.37738239264175,Bakı,49.82495069503784,07 Dekabr 2022 ,,
Yeni tikili,16 / 16,285 m²,5,,900000,"Bakı Musiqi Akademiyası ,Qış parkı ,Milli Konservatoriya ,Azərbaycan Dillər Universiteti ,Sirk ,Neft Akademiyası ,Bakı Slavyan Universiteti ,28 May m.,Nəsimi r.",40.38341187453192,Bakı,49.82710719108582,02 Yanvar 2023 ,,
Köhnə tikili,2 / 2,40 m²,2,,76000,"Sahil m.,Xalça Muzeyi ,Sahil bağı ,Malokan bağı ,Nizami kinoteatrı ,Nəsimi r.",40.37114232767102,Bakı,49.84382587048343,16 Noyabr 2022 ,,
Yeni tikili,6 / 12,66 m²,2,,76000,Xırdalan,40.45155242060076,Xırdalan,49.74373559311515,19 Oktyabr 2022 ,,
Yeni tikili,5 / 17,120 m²,3,yoxdur,238000,"Şərq bazarı ,28 May m.,Nərimanov r.",40.39989258617802,Bakı,49.83979431395813,09 Yanvar 2023 ,,
Köhnə tikili,2 / 5,180 m²,5,,270000,"Nəriman Nərimanov parkı ,Nəriman Nərimanov m.,Nərimanov r.",40.40481309592228,Bakı,49.86986696720127,19 Oktyabr 2022 ,,
Yeni tikili,12 / 17,150 m²,3,,290000,"Yasamal r.,Yeni Yasamal q.",40.38816806232006,Bakı,49.83243942260742,07 Fevral 2023 ,,
Yeni tikili,8 / 16,153 m²,4,,300000,"Nəriman Nərimanov m.,Nərimanov r.",40.40952590477563,Bakı,49.84445571899418,02 Noyabr 2022 ,,
Yeni tikili,14 / 15,150 m²,4,var,270000,Binəqədi r.,40.37533198376934,Bakı,49.81793688867354,19 Oktyabr 2022 ,,
Yeni tikili,12 / 14,100 m²,3,,235000,"Tibb Universiteti ,Park Zorge ,Nəsimi bazarı ,ASAN Xidmət №1 ,Nəsimi r.",40.38691775683309,Bakı,49.8079776763916,19 Oktyabr 2022 ,,
Yeni tikili,8 / 16,115 m²,3,yoxdur,224900,"Nəsimi bazarı ,Nəsimi r.",40.39587992159605,Bakı,49.84348571120761,07 Noyabr 2022 ,,
Köhnə tikili,1 / 5,33 m²,1,,63500,Yasamal r.,40.40928899571853,Bakı,49.80875551700596,19 Oktyabr 2022 ,,
Yeni tikili,16 / 16,96 m²,3,,158000,"Ukrayna dairəsi ,Həzi Aslanov m.,Xətai r.,Əhmədli q.",40.37824529313085,Bakı,49.9531289973145,19 Oktyabr 2022 ,,
Köhnə tikili,12 / 17,150 m²,3,var,290000,"İnşaatçılar m.,Yasamal r.",40.37024250177031,Bakı,49.97394200996779,01 Oktyabr 2022 ,,
Yeni tikili,10 / 20,115 m²,3,yoxdur,167000,"ASAN Xidmət №3 ,Yasamal bazarı ,Yasamal r.",40.39989258617802,Bakı,49.83979431395813,25 Oktyabr 2022 ,,
Köhnə tikili,2 / 3,65 m²,3,,130000,"Sabunçu r.,Bakıxanov q.",40.421,Bakı,49.963,19 Oktyabr 2022 ,,
Yeni tikili,7 / 17,65 m²,3,,105000,"Ukrayna dairəsi ,Əhmədli m.,Xətai r.",40.38010017605128,Bakı,49.95391138920345,07 Oktyabr 2022 ,,
Yeni tikili,4 / 16,190 m²,3,,270000,"Yasamal bazarı ,ASAN Xidmət №3 ,Yasamal r.",40.37649764183499,Bakı,49.84163403511051,19 Oktyabr 2022 ,,
Yeni tikili,11 / 19,128 m²,3,,232800,"Şah İsmayıl Xətai m.,Xətai r.",40.37862575802446,Bakı,49.83980533468834,05 Noyabr 2022 ,,
Köhnə tikili,2 / 5,30 m²,1,,73000,"Zoopark ,Dostluq kinoteatrı ,Koala parkı ,Nərimanov r.",40.39271146068456,Bakı,49.84660148620605,19 Oktyabr 2022 ,,
Yeni tikili,10 / 15,90 m²,2,var,148500,"Həzi Aslanov m.,Xətai r.",40.38816806232006,Bakı,49.83243942260742,19 Oktyabr 2022 ,,
Yeni tikili,3 / 17,140 m²,4,var,230000,Səbail r.,40.38264366149726,Bakı,49.87209320068359,19 Oktyabr 2022 ,,
Köhnə tikili,2 / 5,75 m²,3,,124900,Səbail r.,40.38816806232006,Bakı,49.83243942260742,02 Dekabr 2022 ,,
Yeni tikili,19 / 19,65 m²,3,var,82000,"Həzi Aslanov m.,Xətai r.,Həzi Aslanov q.",40.37742938831814,Bakı,49.80915784835819,14 Oktyabr 2022 ,,
Yeni tikili,1 / 18,79 m²,3,var,145500,"Şah İsmayıl Xətai m.,Xətai r.",40.36942330420567,Bakı,49.82101321220402,29 Oktyabr 2022 ,,
Yeni tikili,8 / 16,153 m²,4,var,300000,"Rəssamlıq Akademiyası ,Nəriman Nərimanov parkı ,Nəriman Nərimanov m.,Nərimanov r.",40.39298300258589,Bakı,49.95403544813546,19 Oktyabr 2022 ,,
Yeni tikili,16 / 17,100 m²,3,var,128999,"Neapol dairəsi ,Xətai r.",40.36942330420567,Bakı,49.82101321220402,10 Yanvar 2023 ,,
Yeni tikili,14 / 19,53 m²,2,,95000,"Xətai r.,Həzi Aslanov q.",40.35561987354004,Bakı,49.96058464050293,19 Oktyabr 2022 ,,
Yeni tikili,12 / 18,155 m²,3,var,290000,"İnşaatçılar m.,Yasamal r.",40.37024250177031,Bakı,49.97394200996779,15 Noyabr 2022 ,var,var
Yeni tikili,7 / 13,65 m²,3,,145000,"Səbail r.,Bayıl q.",40.40606433283491,Bakı,49.86231650326251,19 Oktyabr 2022 ,,
Yeni tikili,17 / 18,164 m²,4,var,205000,Səbail r.,40.38264366149726,Bakı,49.87209320068359,19 Oktyabr 2022 ,,
Yeni tikili,9 / 17,57 m²,1,,109000,"Qara Qarayev m.,Nizami r.,8-ci kilometr q.",40.41769792715831,Bakı,49.93168624379931,19 Oktyabr 2022 ,,
Yeni tikili,9 / 14,220 m²,4,,1700000,"Nizami kinoteatrı ,Sahil m.,Malokan bağı ,Sahil bağı ,Milli Konservatoriya ,Xalça Muzeyi ,Fontanlar bağı ,Səbail r.",40.37332095811318,Bakı,49.84202304948662,19 Oktyabr 2022 ,,
Yeni tikili,1 / 4,93 m²,3,,80000,Xırdalan,40.4609236054629,Xırdalan,49.72429275512695,19 Oktyabr 2022 ,,
Köhnə tikili,2 / 4,80 m²,2,,187000,"Prezident parkı ,Dövlət İdarəçilik Akademiyası ,Şəlalə parkı ,Axundov bağı ,Qubernator parkı ,Nərimanov heykəli ,İçəri Şəhər m.,İqsadiyyat Universiteti ,Səbail r.",40.3863784022024,Bakı,49.84768509864811,01 Oktyabr 2022 ,,
Yeni tikili,15 / 20,163 m²,3,,500000,"Yasamal r.,Yasamal q.",40.38341187453192,Bakı,49.82710719108582,02 Yanvar 2023 ,,
Yeni tikili,7 / 9,99.2 m²,2,,165000,"Cavanşir körpüsü ,Xətai r.",40.38006832851394,Bakı,49.86155787409055,19 Oktyabr 2022 ,,
Yeni tikili,10 / 18,90 m²,3,,183500,"Şah İsmayıl Xətai m.,Xətai r.",40.38816806232006,Bakı,49.83243942260742,19 Fevral 2023 ,,
Yeni tikili,27 / 27,176 m²,4,,329000,Yasamal r.,40.37024250177031,Bakı,49.97394200996779,17 Fevral 2023 ,,
Köhnə tikili,5 / 5,36 m²,1,,65000,"Xalqlar Dostluğu m.,Nizami r.,8-ci kilometr q.",40.4007647013091,Bakı,49.95284884852905,17 Oktyabr 2022 ,,
Yeni tikili,8 / 18,101 m²,3,,225000,"Şah İsmayıl Xətai m.,Xətai r.",40.3843596,Bakı,49.87381000000005,19 Oktyabr 2022 ,,
Yeni tikili,6 / 17,124 m²,3,,198500,"Tibb Universiteti ,Nəsimi r.",40.38264366149726,Bakı,49.87209320068359,15 Oktyabr 2022 ,,
Yeni tikili,4 / 11,140 m²,4,var,165000,Yasamal r.,40.3984164703747,Bakı,49.7900275322022,18 Noyabr 2022 ,,
Yeni tikili,10 / 15,195 m²,4,var,385000,"Zabitlər parkı ,Sirk ,Azərbaycan Dillər Universiteti ,Nəsimi r.",40.37024250177031,Bakı,49.97394200996779,18 Fevral 2023 ,var,var
Yeni tikili,15 / 18,145 m²,4,var,330000,"Nəsimi bazarı ,Tibb Universiteti ,Park Zorge ,ASAN Xidmət №1 ,Nəsimi r.",40.39816149998397,Bakı,49.84086155891422,04 Oktyabr 2022 ,var,var
Yeni tikili,2 / 17,118 m²,3,var,222300,"Ayna Sultanova heykəli ,Nərimanov r.",40.36942330420567,Bakı,49.82101321220402,19 Oktyabr 2022 ,yoxdur,var
Yeni tikili,23 / 27,145 m²,3,var,290000,Yasamal r.,40.37024250177031,Bakı,49.97394200996779,13 Yanvar 2023 ,var,var
Yeni tikili,7 / 18,145 m²,4,yoxdur,303000,"Azadlıq Prospekti m.,Binəqədi r.",40.39816149998397,Bakı,49.84086155891422,Dünən 20:37 ,,
Yeni tikili,1 / 16,35 m²,1,,40000,"Yasamal r.,Yeni Yasamal q.",40.394,Bakı,49.795,04 Oktyabr 2022 ,,
Yeni tikili,14 / 18,63 m²,2,,106000,"ASAN Xidmət №1 ,Tibb Universiteti ,Nəsimi bazarı ,Nəsimi r.",40.39989258617802,Bakı,49.83979431395813,03 Yanvar 2023 ,,
Köhnə tikili,3 / 5,31 m²,1,,72000,"Yasamal bazarı ,İnşaatçılar m.,Yasamal r.",40.3839039,Bakı,49.79972640000005,19 Oktyabr 2022 ,,
Yeni tikili,11 / 22,125 m²,3,,168000,Yasamal r.,40.41287649131505,Bakı,49.80108482569231,19 Oktyabr 2022 ,,
Yeni tikili,16 / 17,100 m²,3,var,129000,"Həzi Aslanov m.,Xətai r.,Həzi Aslanov q.",40.37742938831814,Bakı,49.80915784835819,02 Noyabr 2022 ,,
Yeni tikili,8 / 17,70 m²,3,,110000,"Ukrayna dairəsi ,Əhmədli m.,Xətai r.",40.38816806232006,Bakı,49.83243942260742,09 Fevral 2023 ,,
Yeni tikili,3 / 18,96 m²,3,,152000,"Yasamal r.,Yeni Yasamal q.",40.394,Bakı,49.795,19 Oktyabr 2022 ,,
Köhnə tikili,4 / 5,32 m²,1,,75000,"Yasamal bazarı ,ASAN Xidmət №3 ,Yasamal r.,Yasamal q.",40.38168530806062,Bakı,49.80463163411539,19 Oktyabr 2022 ,,
Köhnə tikili,1 / 9,105 m²,4,,136000,Nizami r.,40.38816806232006,Bakı,49.83243942260742,07 Dekabr 2022 ,,
Yeni tikili,2 / 16,50.4 m²,2,var,70000,"Suraxanı r.,Yeni Günəşli q.",40.40554735588255,Bakı,49.87506508827209,03 Oktyabr 2022 ,,
Yeni tikili,16 / 17,115 m²,3,,275000,Nərimanov r.,40.4089166,Bakı,49.86399959999994,19 Oktyabr 2022 ,,
Köhnə tikili,4 / 5,50 m²,2,,86900,"Tibb Universiteti ,Nəsimi r.",40.36942330420567,Bakı,49.82101321220402,19 Oktyabr 2022 ,,
Köhnə tikili,9 / 9,70 m²,3,,105000,"Əhmədli m.,Xətai r.,Əhmədli q.",40.3816452,Bakı,49.95845050000003,19 Oktyabr 2022 ,,
Yeni tikili,8 / 12,85 m²,3,var,123500,Xətai r.,40.38816806232006,Bakı,49.83243942260742,20 Noyabr 2022 ,,
Yeni tikili,12 / 22,67 m²,2,,99000,"Yasamal r.,Yeni Yasamal q.",40.40165027405231,Bakı,49.86080646514893,19 Oktyabr 2022 ,,
Yeni tikili,7 / 19,55 m²,2,var,115000,"Binəqədi r.,9-cu mikrorayon q.",40.40011603328774,Bakı,49.83917601637808,28 Sentyabr 2022 ,,
Köhnə tikili,9 / 9,75 m²,2,var,144500,"Gənclik m.,Respublika stadionu ,Nərimanov r.",40.40011603328774,Bakı,49.83917601637808,19 Oktyabr 2022 ,,
Yeni tikili,15 / 17,123 m²,2,,230000,"Ağ şəhər ,ASAN Xidmət №2 ,Xətai r.,Ağ şəhər q.",40.38302680638953,Bakı,49.88146817193602,19 Oktyabr 2022 ,,
Yeni tikili,16 / 22,120 m²,3,,235000,Yasamal r.,40.38341187453192,Bakı,49.82710719108582,19 Oktyabr 2022 ,,
Yeni tikili,7 / 17,34 m²,1,,69500,"Qara Qarayev m.,Nizami r.",40.38873191798482,Bakı,49.95395421981815,08 Oktyabr 2022 ,,
Köhnə tikili,4 / 5,58 m²,2,,85000,"Memar Əcəmi m.,Nəsimi r.,4-cü mikrorayon q.",40.37224740672736,Bakı,49.81613159179691,19 Oktyabr 2022 ,,
Yeni tikili,4 / 15,158 m²,3,,385000,"Bakı Asiya Universiteti ,8 Noyabr m.,Nəsimi r.",40.38341187453192,Bakı,49.82710719108582,20 Noyabr 2022 ,,
Yeni tikili,3 / 4,73 m²,2,,77000,Xətai r.,40.39816149998397,Bakı,49.84086155891422,05 Dekabr 2022 ,,
Yeni tikili,7 / 17,100 m²,2,,170000,"Nəsimi bazarı ,Koala parkı ,Zoopark ,Dostluq kinoteatrı ,Nəsimi r.",40.42028115716548,Bakı,49.81340365102955,19 Oktyabr 2022 ,,
Köhnə tikili,5 / 9,90 m²,3,,160000,"Ayna Sultanova heykəli ,Nərimanov r.",40.39205366748811,Bakı,49.84065234661102,19 Oktyabr 2022 ,,
Yeni tikili,4 / 19,157 m²,3,,210000,"Xətai r.,Əhmədli q.",40.38975197879888,Bakı,49.96666163237185,19 Oktyabr 2022 ,,
Yeni tikili,2 / 7,160 m²,4,,540000,"Ağ şəhər ,Xətai r.,Ağ şəhər q.",40.40554735588255,Bakı,49.87506508827209,19 Yanvar 2023 ,,
Yeni tikili,10 / 16,125 m²,3,,143000,"İnşaatçılar m.,Yasamal r.",40.38816806232006,Bakı,49.83243942260742,29 Noyabr 2022 ,,
Köhnə tikili,4 / 5,110 m²,3,,150000,"Dostluq kinoteatrı ,Koala parkı ,Zoopark ,Nəsimi r.",40.3769019868296,Bakı,49.84521518028816,04 Noyabr 2022 ,,
Köhnə tikili,3 / 5,35 m²,1,,75000,"Yasamal bazarı ,Yasamal r.,Yasamal q.",40.40210780478213,Bakı,49.85758781433109,29 Oktyabr 2022 ,,
Yeni tikili,11 / 16,77 m²,1,,162000,"Bayıl parkı ,Səbail r.,Bayıl q.",40.3651072257085,Bakı,49.81950849294662,03 Yanvar 2023 ,,
Yeni tikili,9 / 9,65 m²,2,,75000,Xırdalan,40.45511190000001,Xırdalan,49.74459389999993,19 Oktyabr 2022 ,,
Yeni tikili,8 / 18,65 m²,2,,110000,"Neftçilər m.,Nizami r.",40.38930339224178,Bakı,49.85948536585312,04 Noyabr 2022 ,,
Köhnə tikili,2 / 5,45 m²,2,,84000,Nərimanov r.,40.38816806232006,Bakı,49.83243942260742,24 Noyabr 2022 ,,
Yeni tikili,6 / 16,195 m²,4,,241000,"Elmlər Akademiyası m.,Hüseyn Cavid parkı ,Bakı Dövlət Universiteti ,Texniki Universiteti ,Yasamal r.",40.37316286463371,Bakı,49.81432914733887,19 Oktyabr 2022 ,,
Yeni tikili,11 / 17,227 m²,4,,590000,"Bakı Slavyan Universiteti ,Azərbaycan Dillər Universiteti ,28 May m.,Neft Akademiyası ,Nəsimi r.",40.38341187453192,Bakı,49.82710719108582,04 Noyabr 2022 ,,
Köhnə tikili,4 / 5,30 m²,1,,74900,"Elmlər Akademiyası m.,Yasamal r.",40.38025799599681,Bakı,49.81127458502669,19 Oktyabr 2022 ,,
Köhnə tikili,4 / 5,78 m²,3,,115000,"20 Yanvar m.,Memar Əcəmi m.,Nəsimi r.,3-cü mikrorayon q.",40.39989258617802,Bakı,49.83979431395813,30 Oktyabr 2022 ,,
Köhnə tikili,8 / 9,102 m²,5,var,145000,"Neapol dairəsi ,Suraxanı r.,Yeni Günəşli q.",40.38,Bakı,49.965,19 Oktyabr 2022 ,,
Köhnə tikili,5 / 5,69 m²,3,,80000,Mingəçevir,40.76719206327213,Mingəçevir,47.04569144439699,19 Oktyabr 2022 ,,
Yeni tikili,16 / 17,85 m²,3,,102000,"Neapol dairəsi ,Xətai r.",40.38658256283964,Bakı,49.96418925507879,19 Oktyabr 2022 ,,
Yeni tikili,7 / 10,45 m²,2,var,55000,"Abşeron r.,Masazır q.",40.36942330420567,Bakı,49.82101321220402,28 Oktyabr 2022 ,,
Köhnə tikili,5 / 10,75 m²,3,var,155000,Nərimanov r.,40.38816806232006,Bakı,49.83243942260742,19 Dekabr 2022 ,,
Köhnə tikili,6 / 9,75 m²,3,,120000,"Azadlıq Prospekti m.,Binəqədi r.,8-ci mikrorayon q.",40.42574961170259,Bakı,49.83754382800294,11 Oktyabr 2022 ,,
Yeni tikili,4 / 16,115 m²,3,var,235000,"Bakı Slavyan Universiteti ,28 May m.,Azərbaycan Dillər Universiteti ,Neft Akademiyası ,Nərimanov r.",40.38264366149726,Bakı,49.84677314758301,19 Oktyabr 2022 ,,
Yeni tikili,4 / 17,140 m²,4,,310000,"Qara Qarayev m.,Nizami r.,8-ci kilometr q.",40.41536798161938,Bakı,49.92963279730919,19 Oktyabr 2022 ,,
Yeni tikili,13 / 16,160 m²,3,,224500,Səbail r.,40.37024250177031,Bakı,49.97394200996779,10 Oktyabr 2022 ,,
Köhnə tikili,4 / 5,70 m²,3,,115000,"Memar Əcəmi m.,Nəsimi r.",40.41062057717524,Bakı,49.81355667114258,19 Oktyabr 2022 ,,
Yeni tikili,3 / 17,65 m²,2,,112000,"Bayıl parkı ,Səbail r.,Bayıl q.",40.3497833,Bakı,49.83144970000001,30 Oktyabr 2022 ,,
Köhnə tikili,4 / 5,58 m²,2,,85000,"Memar Əcəmi m.,Nəsimi r.,4-cü mikrorayon q.",40.39197603929571,Bakı,49.80684041976929,19 Oktyabr 2022 ,,
Yeni tikili,2 / 15,155 m²,3,,295000,"Nəriman Nərimanov m.,Nəriman Nərimanov parkı ,Nərimanov r.",40.3863784022024,Bakı,49.84768509864811,10 Dekabr 2022 ,,
Köhnə tikili,2 / 5,50 m²,2,,90000,"Yasamal bazarı ,Yasamal r.",40.38167334161176,Bakı,49.80942878741846,27 Sentyabr 2022 ,,
Yeni tikili,14 / 17,155 m²,4,,380000,"Yasamal bazarı ,Yasamal r.,Elmlər Akademiyası m.",40.3839039,Bakı,49.79972640000005,19 Oktyabr 2022 ,,
Yeni tikili,7 / 9,69 m²,2,,41400,"Abşeron r.,Masazır q.",40.40687051020995,Bakı,49.81628229163361,19 Oktyabr 2022 ,,
Köhnə tikili,3 / 5,200 m²,4,,1200000,"Pedaqoji Universiteti ,Sahil bağı ,Malokan bağı ,Sahil m.,Azadlıq meydanı ,28 May m.,Nəsimi r.",40.3863784022024,Bakı,49.84768509864811,19 Oktyabr 2022 ,,
Yeni tikili,9 / 11,161 m²,3,var,300000,"Tibb Universiteti ,Nəsimi r.",40.39232579999999,Bakı,49.82880550000004,19 Oktyabr 2022 ,,
Yeni tikili,4 / 10,105 m²,3,,163000,"Neftçi bazası ,ASAN Xidmət №1 ,Nəsimi r.",40.39045008382347,Bakı,49.830508675731,19 Oktyabr 2022 ,,
Yeni tikili,7 / 16,85 m²,2,,137000,Xətai r.,40.37024250177031,Bakı,49.97394200996779,24 Noyabr 2022 ,,
Yeni tikili,7 / 19,55 m²,2,var,115000,"Binəqədi r.,9-cu mikrorayon q.",40.42028115716548,Bakı,49.81340365102955,28 Sentyabr 2022 ,,
Yeni tikili,6 / 18,98 m²,3,var,225000,Nərimanov r.,40.4089166,Bakı,49.86399959999994,19 Oktyabr 2022 ,,
Yeni tikili,2 / 17,95 m²,2,,149000,"Zabitlər parkı ,Sirk ,Azərbaycan Dillər Universiteti ,Nəsimi r.",40.39045008382347,Bakı,49.830508675731,19 Oktyabr 2022 ,,
Yeni tikili,11 / 14,65 m²,2,,110000,"Neftçilər m.,Nizami r.,8-ci kilometr q.",40.41913797142315,Bakı,49.92514979797704,20 Oktyabr 2022 ,,
Yeni tikili,5 / 23,140 m²,3,var,227000,"İnşaatçılar m.,Yasamal r.",40.38816806232006,Bakı,49.83243942260742,03 Yanvar 2023 ,,
Yeni tikili,10 / 17,80 m²,2,,125000,"Ukrayna dairəsi ,Əhmədli m.,Həzi Aslanov m.,Xətai r.",40.37953542663661,Bakı,49.95334847139497,19 Oktyabr 2022 ,,
Köhnə tikili,1 / 5,50 m²,2,,83000,Nizami r.,40.39914657038314,Bakı,49.93961579889925,19 Oktyabr 2022 ,,
Yeni tikili,7 / 18,175 m²,4,,425000,"Nəriman Nərimanov m.,Nəriman Nərimanov parkı ,Nərimanov r.",40.40153905225159,Bakı,49.86872501952925,19 Oktyabr 2022 ,,
Yeni tikili,18 / 21,95 m²,3,,139000,"Yasamal bazarı ,İnşaatçılar m.,Yasamal r.",40.38816806232006,Bakı,49.83243942260742,29 Noyabr 2022 ,,
Köhnə tikili,2 / 5,50 m²,2,,86000,"Memar Əcəmi m.,Nəsimi r.,4-cü mikrorayon q.",40.37649764183499,Bakı,49.84163403511051,19 Oktyabr 2022 ,,
Köhnə tikili,1 / 4,20 m²,1,,70000,"Axundov bağı ,Dövlət İdarəçilik Akademiyası ,İqsadiyyat Universiteti ,İçəri Şəhər m.,Prezident parkı ,Qubernator parkı ,M.Ə.Sabir parkı ,Nərimanov heykəli ,Sovetski ,Səbail r.",40.36774541823399,Bakı,49.82959820135131,19 Oktyabr 2022 ,,
Yeni tikili,3 / 12,60 m²,2,var,88000,"Yasamal bazarı ,İnşaatçılar m.,Yasamal r.",40.38816806232006,Bakı,49.83243942260742,31 Oktyabr 2022 ,,
Yeni tikili,3 / 4,86 m²,3,,60000,Xaçmaz r.,41.46296008472915,Xaçmaz,48.80057508346564,19 Oktyabr 2022 ,,
Köhnə tikili,6 / 10,55 m²,2,var,92000,"Xalqlar Dostluğu m.,Xətai r.,Əhmədli q.",40.3930018894103,Bakı,49.95128363653,19 Oktyabr 2022 ,,
Yeni tikili,13 / 16,71 m²,2,,142000,"Neftçilər m.,Nizami r.,8-ci kilometr q.",40.41913797142315,Bakı,49.92514979797704,19 Oktyabr 2022 ,,
Yeni tikili,11 / 17,68 m²,2,var,169000,"Şərq bazarı ,Nərimanov r.",40.40165844427115,Bakı,49.86887991428379,19 Oktyabr 2022 ,,
Yeni tikili,10 / 20,95 m²,2,yoxdur,147000,"Binəqədi r.,8-ci mikrorayon q.",40.39816149998397,Bakı,49.84086155891422,26 Oktyabr 2022 ,,
Köhnə tikili,4 / 4,60 m²,2,,135000,"Pedaqoji Universiteti ,Sahil bağı ,Malokan bağı ,Nizami kinoteatrı ,Sahil m.,Milli Konservatoriya ,Neft Akademiyası ,28 May m.,Səbail r.",40.3743521239661,Bakı,49.84840929508209,19 Oktyabr 2022 ,,
Yeni tikili,11 / 16,170 m²,4,,450000,"Tibb Universiteti ,Nəsimi r.",40.39232579999999,Bakı,49.82880550000004,19 Oktyabr 2022 ,,
Köhnə tikili,5 / 5,90 m²,4,,113000,"Ukrayna dairəsi ,Həzi Aslanov m.,Xətai r.,Həzi Aslanov q.",40.37772828625993,Bakı,49.95419860372367,30 Sentyabr 2022 ,,
Yeni tikili,5 / 16,70 m²,2,,65500,Abşeron r.,40.45511190000001,Xırdalan,49.74459389999993,19 Oktyabr 2022 ,,
Yeni tikili,13 / 22,63 m²,2,,98000,"Yasamal r.,Yeni Yasamal q.",40.39816149998397,Bakı,49.84086155891422,03 Yanvar 2023 ,,
Yeni tikili,1 / 7,115 m²,3,,133000,"Yasamal r.,Yeni Yasamal q.",40.394,Bakı,49.795,19 Oktyabr 2022 ,,
Köhnə tikili,8 / 9,76 m²,3,,105000,"Həzi Aslanov m.,Xətai r.,Köhnə Günəşli q.",40.3764811,Bakı,49.96064290000004,19 Oktyabr 2022 ,,
Köhnə tikili,7 / 9,80 m²,3,,102000,"Suraxanı r.,Yeni Günəşli q.",40.38400961271048,Bakı,49.97985230148667,19 Oktyabr 2022 ,,
Köhnə tikili,9 / 9,55 m²,2,,75000,"Suraxanı r.,Yeni Günəşli q.",40.38399034984512,Bakı,49.97984098946507,19 Oktyabr 2022 ,,
Köhnə tikili,5 / 9,76 m²,3,,185000,"İnşaatçılar m.,Yasamal r.",40.37620916175648,Bakı,49.81580107043555,19 Oktyabr 2022 ,,
Yeni tikili,3 / 17,110 m²,3,var,149000,Xətai r.,40.39989258617802,Bakı,49.83979431395813,19 Oktyabr 2022 ,,
Yeni tikili,14 / 17,45 m²,2,,55000,Sumqayıt,40.589694,Sumqayıt,49.66787920000002,29 Sentyabr 2022 ,,
Köhnə tikili,4 / 5,55 m²,2,,78000,"Nəsimi m.,Zərifə Əliyeva adına park ,Binəqədi r.,6-cı mikrorayon q.",40.42462293142408,Bakı,49.82538619166712,19 Oktyabr 2022 ,,
Yeni tikili,2 / 17,58 m²,2,,85000,"Yasamal r.,Yeni Yasamal q.",40.38654645788341,Bakı,49.78673223946408,28 Sentyabr 2022 ,,
Yeni tikili,13 / 16,99 m²,3,,112000,Xırdalan,40.45353842079265,Xırdalan,49.73976326670091,19 Oktyabr 2022 ,,
Köhnə tikili,5 / 9,100 m²,3,,160000,"Memar Əcəmi m.,Nəsimi r.",40.37620916175648,Bakı,49.81580107043555,19 Oktyabr 2022 ,,
Yeni tikili,11 / 17,82 m²,3,,150000,"Azadlıq Prospekti m.,Binəqədi r.,8-ci mikrorayon q.",40.42074076849563,Bakı,49.84279816021195,19 Oktyabr 2022 ,,
Köhnə tikili,4 / 9,110 m²,5,,155000,"Xalqlar Dostluğu m.,Xətai r.,Əhmədli q.",40.39307451378475,Bakı,49.95714039845108,20 Dekabr 2022 ,,
Yeni tikili,4 / 22,72 m²,2,,75000,"Yasamal r.,Yeni Yasamal q.",40.39231923694332,Bakı,49.79493141174316,19 Oktyabr 2022 ,,
Yeni tikili,12 / 15,137 m²,3,,260000,"Zabitlər parkı ,Nizami m.,Sirk ,Nəsimi r.,Kubinka q.",40.3823534,Bakı,49.83293920000006,19 Oktyabr 2022 ,,
Yeni tikili,8 / 19,104 m²,2,,145000,"İnşaatçılar m.,Yasamal r.",40.38812071236754,Bakı,49.80290213547369,19 Oktyabr 2022 ,,
Yeni tikili,11 / 16,113 m²,3,,180000,"İnşaatçılar m.,Yasamal r.,Yasamal q.",40.3903785129407,Bakı,49.81005907058716,19 Oktyabr 2022 ,,
Yeni tikili,6 / 6,75 m²,3,var,68000,"Abşeron r.,Masazır q.",40.4862557,Bakı,49.75753099999997,19 Oktyabr 2022 ,,
Köhnə tikili,4 / 9,68 m²,4,,135000,"Yasamal bazarı ,İnşaatçılar m.,Yasamal r.",40.3839039,Bakı,49.79972640000005,19 Oktyabr 2022 ,,
Yeni tikili,5 / 16,138 m²,3,,240000,"28 May m.,Neft Akademiyası ,Bakı Slavyan Universiteti ,Bakı Musiqi Akademiyası ,Nəsimi r.",40.38128168459657,Bakı,49.84748547094178,19 Oktyabr 2022 ,,
Yeni tikili,10 / 16,130 m²,3,var,220000,"ASAN Xidmət №1 ,Neftçi bazası ,Tibb Universiteti ,Nəsimi r.",40.39898672984681,Bakı,49.83501434326172,19 Oktyabr 2022 ,,
Yeni tikili,15 / 17,95 m²,3,,175000,"Qara Qarayev m.,Nizami r.",40.41794246852393,Bakı,49.93296829849668,19 Oktyabr 2022 ,,
Köhnə tikili,4 / 5,70 m²,3,,115000,"Memar Əcəmi m.,Nəsimi r.,3-cü mikrorayon q.",40.4157710168948,Bakı,49.81499865115581,02 Noyabr 2022 ,,
Yeni tikili,8 / 20,107 m²,2,,145000,"Yasamal bazarı ,İnşaatçılar m.,Yasamal r.,Yasamal q.",40.37742938831814,Bakı,49.80915784835819,20 Oktyabr 2022 ,,
Yeni tikili,11 / 18,115 m²,3,var,180000,"İnşaatçılar m.,Yasamal r.,Yasamal q.",40.42028115716548,Bakı,49.81340365102955,20 Oktyabr 2022 ,,
Köhnə tikili,3 / 5,70 m²,2,,145000,"Space TV ,Texniki Universiteti ,Yasamal r.",40.36642741921034,Bakı,49.81780529022217,20 Oktyabr 2022 ,,
Yeni tikili,5 / 7,310 m²,7,,250000,Səbail r.,40.33848769386648,Bakı,49.83338988626268,20 Oktyabr 2022 ,,
Köhnə tikili,4 / 5,48 m²,2,,85000,Nizami r.,40.4087847,Bakı,49.92876260000003,20 Oktyabr 2022 ,,
Köhnə tikili,1 / 5,50 m²,1,var,75000,"Qara Qarayev m.,Nizami r.,8-ci kilometr q.",40.41762961207698,Bakı,49.93444455935991,05 Fevral 2023 ,,
Yeni tikili,10 / 17,90 m²,3,var,147000,"Xətai r.,Həzi Aslanov q.",40.3807186,Bakı,49.92525120000005,07 Oktyabr 2022 ,,
Köhnə tikili,3 / 4,45 m²,1,,45000,"Suraxanı r.,Bülbülə q.",40.4365714,Bakı,49.9688673,20 Oktyabr 2022 ,,
Köhnə tikili,5 / 5,85 m²,4,,116000,"Əhmədli m.,Xətai r.,Əhmədli q.",40.38525881895442,Bakı,49.95380401611328,20 Oktyabr 2022 ,,
Yeni tikili,16 / 16,75 m²,2,var,140000,"20 Yanvar m.,Yasamal r.",40.39790543366799,Bakı,49.80824704593351,12 Dekabr 2022 ,,
Köhnə tikili,6 / 9,95 m²,4,,120000,"Binəqədi r.,Biləcəri q.",40.440334,Bakı,49.80566169999997,20 Oktyabr 2022 ,,
Köhnə tikili,1 / 9,65 m²,2,,72000,"Həzi Aslanov m.,Xətai r.,Köhnə Günəşli q.",40.3764811,Bakı,49.96064290000004,20 Oktyabr 2022 ,,
Köhnə tikili,6 / 9,80 m²,3,,107500,"Xətai r.,Əhmədli q.",40.3744844328779,Bakı,49.96192990739457,19 Noyabr 2022 ,,
Yeni tikili,7 / 21,176 m²,4,,140000,Yasamal r.,40.41220705044221,Bakı,49.80049887619634,20 Oktyabr 2022 ,,
Yeni tikili,14 / 16,68 m²,2,,82000,Xırdalan,40.45248312837339,Xırdalan,49.74206189468987,20 Oktyabr 2022 ,,
Köhnə tikili,1 / 9,85 m²,3,,94000,"Binəqədi r.,Biləcəri q.",40.44106188736331,Bakı,49.81175374928345,16 Oktyabr 2022 ,,
Yeni tikili,18 / 27,150 m²,3,var,222000,"İnşaatçılar m.,Yasamal r.",40.39816149998397,Bakı,49.84086155891422,26 Dekabr 2022 ,yoxdur,var
Yeni tikili,4 / 17,58 m²,2,,86000,"Yasamal r.,Yeni Yasamal q.",40.37224740672736,Bakı,49.81613159179691,26 Sentyabr 2022 ,,
Yeni tikili,11 / 16,63 m²,2,var,155000,"Nəsimi bazarı ,ASAN Xidmət №1 ,Nəsimi r.",40.37738239264175,Bakı,49.82495069503784,20 Oktyabr 2022 ,,
Yeni tikili,3 / 16,127 m²,3,,162000,"Yasamal r.,Yeni Yasamal q.",40.38499730777751,Bakı,49.83810424804688,05 Oktyabr 2022 ,,
Yeni tikili,10 / 21,53 m²,1,,85000,"Şah İsmayıl Xətai m.,Xətai r.",40.40554735588255,Bakı,49.87506508827209,20 Oktyabr 2022 ,,
Yeni tikili,8 / 22,58 m²,2,,118000,"Sabunçu r.,Bakıxanov q.",40.41694861425131,Bakı,49.96772068786619,20 Oktyabr 2022 ,,
Yeni tikili,19 / 20,71 m²,2,,78000,"Əhmədli m.,Xətai r.",40.39026819642278,Bakı,49.95772004127506,20 Oktyabr 2022 ,,
Yeni tikili,5 / 7,43.1 m²,1,,32000,Xırdalan,40.46485203297866,Xırdalan,49.73392412350091,05 Oktyabr 2022 ,,
Köhnə tikili,2 / 5,36 m²,1,,63000,"20 Yanvar m.,Memar Əcəmi m.,Nəsimi r.,1-ci mikrorayon q.",40.39197603929571,Bakı,49.80684041976929,20 Oktyabr 2022 ,,
Yeni tikili,3 / 11,85 m²,3,var,88000,Xırdalan,40.45511190000001,Xırdalan,49.74459389999993,20 Oktyabr 2022 ,,
Köhnə tikili,2 / 5,40 m²,2,,76000,"Memar Əcəmi m.,Nəsimi r.,4-cü mikrorayon q.",40.39197603929571,Bakı,49.80684041976929,20 Oktyabr 2022 ,,
Yeni tikili,2 / 13,95 m²,3,var,135000,"Yasamal r.,Yeni Yasamal q.",40.4053327515815,Bakı,49.81380344106,20 Oktyabr 2022 ,,
Yeni tikili,16 / 19,99 m²,3,yoxdur,170000,Xətai r.,40.40152503521376,Bakı,49.86131862059725,09 Yanvar 2023 ,,
Yeni tikili,13 / 16,135 m²,3,,168000,"Suraxanı r.,Qaraçuxur q.",40.37533198376934,Bakı,49.81793688867354,24 Noyabr 2022 ,,
Yeni tikili,9 / 9,85 m²,3,var,119900,"Yasamal r.,Yeni Yasamal q.",40.3863886681378,Bakı,49.80817391355895,20 Oktyabr 2022 ,,
Yeni tikili,4 / 10,73 m²,2,,150000,Binəqədi r.,40.4750302,Bakı,49.82237950000001,20 Oktyabr 2022 ,,
Yeni tikili,11 / 16,113 m²,3,,176000,"İnşaatçılar m.,Yasamal r.,Yasamal q.",40.38816806232006,Bakı,49.83243942260742,19 Noyabr 2022 ,,
Köhnə tikili,1 / 9,48 m²,2,,56000,"Xalqlar Dostluğu m.,Suraxanı r.,Yeni Günəşli q.",40.39761835243856,Bakı,49.95259746551513,20 Oktyabr 2022 ,,
Köhnə tikili,3 / 3,65 m²,3,,197000,"Fontanlar bağı ,Xalça Muzeyi ,Sahil m.,Azərbaycan kinoteatrı ,Səbail r.",40.38499730777751,Bakı,49.83810424804688,03 Oktyabr 2022 ,,
Yeni tikili,14 / 16,71 m²,1,,85200,"Avtovağzal m.,Binəqədi r.",40.37620916175648,Bakı,49.81580107043555,20 Oktyabr 2022 ,,
Yeni tikili,15 / 15,110 m²,3,,240000,"İnşaatçılar m.,Yasamal r.",40.39414959485713,Bakı,49.7993946075439,20 Oktyabr 2022 ,,
Yeni tikili,3 / 5,80 m²,3,,155000,"Azadlıq Prospekti m.,Binəqədi r.,8-ci mikrorayon q.",40.40554735588255,Bakı,49.87506508827209,20 Oktyabr 2022 ,,
Yeni tikili,4 / 16,159 m²,3,,329000,"Bakı Asiya Universiteti ,8 Noyabr m.,Nəsimi r.",40.40111918807422,Bakı,49.81857033611212,20 Oktyabr 2022 ,,
Yeni tikili,2 / 17,96 m²,3,,145000,"Yasamal r.,Yeni Yasamal q.",40.38878094868915,Bakı,49.78639125823975,20 Oktyabr 2022 ,,
Köhnə tikili,5 / 5,65 m²,2,,90000,"Həzi Aslanov m.,Xətai r.,Əhmədli q.",40.38499730777751,Bakı,49.83810424804688,20 Oktyabr 2022 ,,
Yeni tikili,8 / 17,70 m²,3,,105000,"Əhmədli m.,Xətai r.",40.41932422288878,Bakı,49.92522239685059,03 Noyabr 2022 ,,
Köhnə tikili,10 / 10,105 m²,3,,170000,"Azərbaycan turizm institutu ,Respublika stadionu ,Gənclik m.,Nərimanov r.",40.40096600048884,Bakı,49.85971715657594,20 Oktyabr 2022 ,,
Yeni tikili,3 / 15,136 m²,3,var,272000,"Dövlət Statistika Komitəsi ,M.Hüseynzadə parkı ,Nizami m.,Yasamal r.",40.38393649913722,Bakı,49.82891160497888,20 Oktyabr 2022 ,,
Yeni tikili,11 / 17,180 m²,4,,400000,"Azərbaycan turizm institutu ,Gənclik m.,Nərimanov r.",40.3973891683445,Bakı,49.85952919933808,06 Oktyabr 2022 ,,
Yeni tikili,16 / 16,55 m²,2,var,85000,"Həzi Aslanov m.,Xətai r.,Həzi Aslanov q.",40.37309747519567,Bakı,49.95346069335938,20 Oktyabr 2022 ,,
Köhnə tikili,4 / 5,130 m²,3,,250000,"Fontanlar bağı ,Xalça Muzeyi ,Sahil m.,Azərbaycan kinoteatrı ,Malokan bağı ,Nizami kinoteatrı ,Səbail r.",40.39270174045908,Bakı,49.83329557619629,20 Oktyabr 2022 ,,
Yeni tikili,13 / 18,60 m²,2,yoxdur,112000,"Səbail r.,Badamdar q.",40.40606433283491,Bakı,49.86231650326251,04 Noyabr 2022 ,,
Yeni tikili,12 / 19,110 m²,3,,181000,Xətai r.,40.38816806232006,Bakı,49.83243942260742,17 Fevral 2023 ,,
Yeni tikili,11 / 16,62 m²,2,,51000,Xırdalan,40.45511190000001,Xırdalan,49.74459389999993,20 Oktyabr 2022 ,,
Yeni tikili,9 / 12,217.4 m²,4,,555000,"Qış parkı ,Bakı Musiqi Akademiyası ,Milli Konservatoriya ,Nizami kinoteatrı ,28 May m.,Nəsimi r.",40.39414959485713,Bakı,49.7993946075439,20 Oktyabr 2022 ,,
Yeni tikili,4 / 12,190 m²,4,var,299000,"Memar Əcəmi m.,Binəqədi r.",40.39816149998397,Bakı,49.84086155891422,30 Oktyabr 2022 ,var,var
Yeni tikili,8 / 19,82 m²,3,,140000,"Ukrayna dairəsi ,Həzi Aslanov m.,Əhmədli m.,Xətai r.",40.38080859350129,Bakı,49.95724192764082,20 Oktyabr 2022 ,,
Yeni tikili,12 / 14,190 m²,4,,320000,"Nəsimi bazarı ,Koala parkı ,Dostluq kinoteatrı ,Zoopark ,Nəsimi r.",40.37660389427779,Bakı,49.8131650686264,20 Oktyabr 2022 ,,
Yeni tikili,4 / 15,91 m²,3,var,120000,"Xətai r.,Həzi Aslanov q.",40.3807186,Bakı,49.92525120000005,20 Oktyabr 2022 ,,
Yeni tikili,10 / 12,49 m²,2,var,66000,Yasamal r.,40.37658105598415,Bakı,49.79612151108404,26 Oktyabr 2022 ,,
Yeni tikili,12 / 16,290 m²,5,,650000,"ASAN Xidmət №1 ,Nəsimi r.",40.39584916837152,Bakı,49.85226631164551,21 Noyabr 2022 ,,
Yeni tikili,5 / 20,75 m²,2,,115000,"Bakı Dövlət Universiteti ,Yasamal r.,Yasamal q.",40.37311550413357,Bakı,49.80607787094732,20 Oktyabr 2022 ,,
Yeni tikili,12 / 17,142 m²,3,,220000,"Əhmədli m.,Ukrayna dairəsi ,Xətai r.,Əhmədli q.",40.38873191798482,Bakı,49.95395421981815,20 Oktyabr 2022 ,,
Yeni tikili,5 / 17,59 m²,2,,112000,"Tibb Universiteti ,Nəsimi r.",40.38499730777751,Bakı,49.83810424804688,20 Oktyabr 2022 ,,
Köhnə tikili,3 / 5,70 m²,3,,114500,"Neftçilər m.,Nizami r.",40.37104456957248,Bakı,49.95549254560103,20 Oktyabr 2022 ,,
Yeni tikili,15 / 16,88 m²,3,var,174900,"ASAN Xidmət №1 ,Neftçi bazası ,Nəsimi r.",40.40161249035626,Bakı,49.83189384154501,20 Oktyabr 2022 ,,
Yeni tikili,4 / 9,41 m²,2,,57000,Xırdalan,40.45511190000001,Xırdalan,49.74459389999993,20 Oktyabr 2022 ,,
Yeni tikili,12 / 19,76 m²,2,var,127000,"Yasamal r.,Yeni Yasamal q.",40.39378606361042,Bakı,49.79506242160452,20 Oktyabr 2022 ,,
Yeni tikili,9 / 11,55 m²,2,,97000,"Yasamal r.,Yeni Yasamal q.",40.41932422288878,Bakı,49.92522239685059,20 Oktyabr 2022 ,,
Yeni tikili,12 / 20,90 m²,2,var,175000,"İncəsənət və Mədəniyyət Un. ,Elmlər Akademiyası m.,Yasamal r.,Yasamal q.",40.3863886681378,Bakı,49.80817391355895,20 Oktyabr 2022 ,,
Yeni tikili,12 / 16,72 m²,2,,83000,Abşeron r.,40.484,Bakı,49.757,20 Oktyabr 2022 ,,
Yeni tikili,9 / 17,79.1 m²,2,,146000,"ASAN Xidmət №1 ,Neftçi bazası ,TQDK ,Nərimanov r.",40.39872226022674,Bakı,49.83779237790836,20 Oktyabr 2022 ,,
Yeni tikili,19 / 19,126 m²,3,,201500,"Şah İsmayıl Xətai m.,Xətai r.",40.38310132138137,Bakı,49.87192153930664,20 Oktyabr 2022 ,,
Köhnə tikili,1 / 5,70 m²,3,var,108000,"Həzi Aslanov m.,Xətai r.",40.37399689469268,Bakı,49.94549969661047,20 Oktyabr 2022 ,,
Yeni tikili,15 / 16,110 m²,3,var,227700,"Nəsimi bazarı ,ASAN Xidmət №1 ,Nəsimi r.",40.4053327515815,Bakı,49.81380344106,20 Oktyabr 2022 ,,
Yeni tikili,8 / 8,80 m²,2,,55000,Xırdalan,40.45511190000001,Xırdalan,49.74459389999993,20 Oktyabr 2022 ,,
Yeni tikili,5 / 17,65 m²,3,,105000,"Əhmədli m.,Xətai r.,Əhmədli q.",40.38873191798482,Bakı,49.95395421981815,20 Oktyabr 2022 ,,
Yeni tikili,12 / 19,85 m²,2,,137000,Xətai r.,40.38816806232006,Bakı,49.83243942260742,07 Noyabr 2022 ,,
Yeni tikili,5 / 16,131 m²,3,,220000,"Ayna Sultanova heykəli ,Binəqədi r.,8-ci mikrorayon q.",40.39045008382347,Bakı,49.830508675731,09 Fevral 2023 ,,
Yeni tikili,5 / 16,70 m²,2,,69000,Xırdalan,40.45132382373737,Xırdalan,49.74407891586906,20 Oktyabr 2022 ,,
Köhnə tikili,4 / 5,90 m²,3,var,255000,"Səməd Vurğun parkı ,Port Baku ,Azadlıq meydanı ,28 May m.,Nəsimi r.",40.39061957433251,Bakı,49.84664440155029,20 Oktyabr 2022 ,,
Yeni tikili,15 / 20,75 m²,2,,95000,"Yasamal r.,Yeni Yasamal q.",40.38873191798482,Bakı,49.95395421981815,10 Oktyabr 2022 ,,
Köhnə tikili,3 / 5,70 m²,3,,135000,"Tibb Universiteti ,Nəsimi r.",40.37620916175648,Bakı,49.81580107043555,20 Oktyabr 2022 ,,
Yeni tikili,2 / 7,50 m²,2,,150000,"Ağ şəhər ,Xətai r.",40.38392849503325,Bakı,49.88784868198401,20 Oktyabr 2022 ,,
Yeni tikili,14 / 18,238 m²,4,,714000,"Nizami kinoteatrı ,Milli Konservatoriya ,Qış parkı ,Bakı Musiqi Akademiyası ,Malokan bağı ,Sahil m.,28 May m.,Nəsimi r.",40.38341187453192,Bakı,49.82710719108582,03 Noyabr 2022 ,,
Yeni tikili,2 / 18,133 m²,3,,135000,"20 Yanvar m.,Yasamal r.",40.37742938831814,Bakı,49.80915784835819,20 Oktyabr 2022 ,,
Yeni tikili,8 / 17,110.5 m²,3,,225000,"Nəsimi bazarı ,Nərimanov r.",40.40027766320492,Bakı,49.84006762504578,04 Noyabr 2022 ,,
Köhnə tikili,8 / 9,90 m²,3,var,104000,Xətai r.,40.39989258617802,Bakı,49.83979431395813,16 Dekabr 2022 ,,
Yeni tikili,2 / 9,54 m²,1,,33480,Abşeron r.,40.40687051020995,Xırdalan,49.81628229163361,20 Oktyabr 2022 ,,
Köhnə tikili,5 / 5,45 m²,2,var,79900,"Memar Əcəmi m.,Nəsimi r.",40.37024250177031,Bakı,49.97394200996779,05 Oktyabr 2022 ,,
Köhnə tikili,5 / 5,55 m²,2,,80000,"Nəsimi r.,3-cü mikrorayon q.",40.38274990424748,Bakı,49.8084390163422,20 Oktyabr 2022 ,,
Yeni tikili,9 / 19,110 m²,3,,150000,"Əhmədli m.,Xətai r.",40.41932422288878,Bakı,49.92522239685059,20 Oktyabr 2022 ,,
Yeni tikili,15 / 19,111 m²,3,,230000,"Bakı Dövlət Universiteti ,Elmlər Akademiyası m.,Yasamal r.",40.41932422288878,Bakı,49.92522239685059,12 Oktyabr 2022 ,,
Yeni tikili,5 / 16,74 m²,1,,116000,"Nəsimi bazarı ,Koala parkı ,Nəsimi r.",40.39464271895285,Bakı,49.84044792824255,20 Oktyabr 2022 ,,
Yeni tikili,16 / 18,140 m²,3,,250000,"Gənclik m.,Nərimanov r.",40.37620916175648,Bakı,49.81580107043555,20 Oktyabr 2022 ,,
Yeni tikili,3 / 18,65 m²,2,var,140000,Nərimanov r.,40.40027766320492,Bakı,49.84006762504578,04 Noyabr 2022 ,,
Yeni tikili,11 / 16,138 m²,3,,235000,"Azadlıq Prospekti m.,Binəqədi r.",40.37104456957248,Bakı,49.95549254560103,20 Oktyabr 2022 ,,
Yeni tikili,14 / 18,83.1 m²,2,,180000,"ASAN Xidmət №1 ,Tibb Universiteti ,Neftçi bazası ,Nəsimi r.",40.37520939853896,Bakı,49.84099855135474,19 Noyabr 2022 ,,
Köhnə tikili,4 / 9,95 m²,4,var,135800,Suraxanı r.,40.36942330420567,Bakı,49.82101321220402,20 Oktyabr 2022 ,var,var
Yeni tikili,7 / 16,80 m²,2,var,137000,"Əhmədli m.,Xətai r.,Əhmədli q.",40.4053327515815,Bakı,49.81380344106,20 Oktyabr 2022 ,,
Köhnə tikili,2 / 3,75 m²,3,var,125000,"Sabunçu r.,Bakıxanov q.",40.42800964453095,Bakı,49.9576406837398,20 Oktyabr 2022 ,,
Köhnə tikili,4 / 9,72 m²,3,,95000,Xətai r.,40.36822884896801,Bakı,49.813362210989,20 Oktyabr 2022 ,,
Yeni tikili,15 / 20,97 m²,2,,140000,"Yasamal r.,Yeni Yasamal q.",40.38873191798482,Bakı,49.95395421981815,20 Oktyabr 2022 ,,
Yeni tikili,8 / 17,124 m²,3,,192000,"Xətai r.,Həzi Aslanov q.",40.38873191798482,Bakı,49.95395421981815,20 Oktyabr 2022 ,,
Yeni tikili,14 / 16,68 m²,2,,82000,Xırdalan,40.45245455420378,Xırdalan,49.74205131907212,20 Oktyabr 2022 ,,
Yeni tikili,13 / 17,122 m²,3,,210000,"Ukrayna dairəsi ,Əhmədli m.,Xətai r.",40.41932422288878,Bakı,49.92522239685059,Bugün 12:12 ,,
Yeni tikili,10 / 18,91.1 m²,2,,122985,"Səbail r.,Badamdar q.",40.33952290000001,Bakı,49.80342369999994,20 Oktyabr 2022 ,,
Yeni tikili,9 / 16,83 m²,2,,145000,"ASAN Xidmət №1 ,Tibb Universiteti ,Nəsimi r.",40.37520939853896,Bakı,49.84099855135474,19 Dekabr 2022 ,,
Köhnə tikili,2 / 5,40 m²,2,,63000,"Memar Əcəmi m.,Nəsimi r.,4-cü mikrorayon q.",40.38274990424748,Bakı,49.8084390163422,20 Oktyabr 2022 ,,
Köhnə tikili,6 / 9,65 m²,2,,128000,"Binəqədi r.,8-ci mikrorayon q.",40.39980377915154,Bakı,49.86642837524414,10 Noyabr 2022 ,,
Yeni tikili,15 / 17,110 m²,3,var,180800,"Bakı Asiya Universiteti ,8 Noyabr m.,Nəsimi r.",40.4053327515815,Bakı,49.81380344106,20 Oktyabr 2022 ,,
Yeni tikili,9 / 17,140 m²,3,,250000,"Nizami m.,Dövlət Statistika Komitəsi ,Yasamal r.",40.37649764183499,Bakı,49.84163403511051,20 Oktyabr 2022 ,,
Yeni tikili,19 / 19,109 m²,3,,225000,"İnşaatçılar m.,Yasamal r.",40.38341187453192,Bakı,49.82710719108582,20 Oktyabr 2022 ,,
Yeni tikili,11 / 16,120 m²,3,var,171000,"Yasamal bazarı ,İnşaatçılar m.,Yasamal r.",40.39989258617802,Bakı,49.83979431395813,22 Oktyabr 2022 ,var,var
Yeni tikili,18 / 21,170 m²,3,,278000,"Dövlət Statistika Komitəsi ,Nizami m.,İncəsənət və Mədəniyyət Un. ,Nəsimi r.",40.38205852569496,Bakı,49.82525404002049,20 Oktyabr 2022 ,,
Yeni tikili,7 / 19,103 m²,3,var,238000,"Tibb Universiteti ,Nəsimi r.",40.4053327515815,Bakı,49.81380344106,20 Oktyabr 2022 ,,
Yeni tikili,9 / 15,74 m²,2,,185000,"İnşaatçılar m.,Yasamal r.",40.39029271122013,Bakı,49.80265617370605,20 Oktyabr 2022 ,,
Yeni tikili,8 / 17,138 m²,3,var,264500,"Binəqədi r.,8-ci mikrorayon q.",40.4053327515815,Bakı,49.81380344106,01 Oktyabr 2022 ,,
Yeni tikili,6 / 12,137 m²,3,var,175000,"Yasamal r.,Yeni Yasamal q.",40.38984892898383,Bakı,49.78959266662597,20 Oktyabr 2022 ,,
Yeni tikili,18 / 21,143 m²,3,,140000,"Tibb Universiteti ,Nəsimi r.",40.40952590477563,Bakı,49.84445571899418,04 Noyabr 2022 ,,
Yeni tikili,17 / 20,46.9 m²,2,,85000,"20 Yanvar m.,Yasamal r.",40.40075197015513,Bakı,49.80595620395088,20 Oktyabr 2022 ,,
Yeni tikili,8 / 13,141 m²,3,,260000,Nizami r.,40.41699219735978,Bakı,49.93324756622318,16 Noyabr 2022 ,,
Köhnə tikili,2 / 5,40 m²,1,,62000,"Nəsimi r.,4-cü mikrorayon q.",40.37649764183499,Bakı,49.84163403511051,20 Oktyabr 2022 ,,
Yeni tikili,11 / 16,140 m²,3,var,235000,"Ayna Sultanova heykəli ,Binəqədi r.",40.4053327515815,Bakı,49.81380344106,20 Oktyabr 2022 ,,
Yeni tikili,12 / 17,115 m²,3,,180000,"Elmlər Akademiyası m.,Yasamal r.",40.37005679625383,Bakı,49.82993423938751,20 Oktyabr 2022 ,,
Köhnə tikili,3 / 4,65 m²,2,var,161000,"Şah İsmayıl Xətai m.,Xətai r.",40.36942330420567,Bakı,49.82101321220402,25 Oktyabr 2022 ,var,var
Yeni tikili,5 / 14,126 m²,3,,179500,"Bakı Asiya Universiteti ,8 Noyabr m.,Nəsimi r.",40.39989258617802,Bakı,49.83979431395813,21 Noyabr 2022 ,,
Yeni tikili,13 / 19,66 m²,2,,139000,"Neftçilər m.,Nizami r.",40.41113523043337,Bakı,49.95146512985229,20 Oktyabr 2022 ,,
Yeni tikili,11 / 18,70 m²,2,var,169000,"Şərq bazarı ,Nərimanov r.",40.39489418492813,Bakı,49.86098617315296,20 Oktyabr 2022 ,,
Yeni tikili,13 / 15,48 m²,2,,125000,"İnşaatçılar m.,Yasamal r.",40.39414959485713,Bakı,49.7993946075439,26 Noyabr 2022 ,,
Yeni tikili,6 / 18,90 m²,2,var,180000,"Şah İsmayıl Xətai m.,Xətai r.",40.37738239264175,Bakı,49.82495069503784,19 Noyabr 2022 ,,
Yeni tikili,8 / 16,57 m²,2,,133000,"Memar Əcəmi m.,Nəsimi r.,5-ci mikrorayon q.",40.41049377472457,Bakı,49.81246765927733,20 Oktyabr 2022 ,,
Köhnə tikili,1 / 9,105 m²,4,var,125000,Binəqədi r.,40.36942330420567,Bakı,49.82101321220402,09 Fevral 2023 ,var,var
Yeni tikili,2 / 16,97 m²,3,,127000,"Qara Qarayev m.,Nizami r.",40.38873191798482,Bakı,49.95395421981815,21 Yanvar 2023 ,,
Yeni tikili,12 / 15,139 m²,3,var,260000,"ASAN Xidmət №1 ,Tibb Universiteti ,Neftçi bazası ,Nəsimi r.",40.4053327515815,Bakı,49.81380344106,20 Oktyabr 2022 ,,
Köhnə tikili,9 / 9,100 m²,3,,120000,Yasamal r.,40.37620916175648,Bakı,49.81580107043555,20 Oktyabr 2022 ,,
Köhnə tikili,5 / 9,75 m²,3,,105000,"20 Yanvar m.,Nəsimi r.,1-ci mikrorayon q.",40.39061957433251,Bakı,49.84664440155029,27 Sentyabr 2022 ,,
Yeni tikili,8 / 19,60 m²,2,var,96000,Yasamal r.,40.41275458768677,Bakı,49.80066612888868,20 Oktyabr 2022 ,,
Yeni tikili,8 / 18,157 m²,4,,290000,"İnşaatçılar m.,Yasamal r.",40.38873191798482,Bakı,49.95395421981815,20 Oktyabr 2022 ,,
Yeni tikili,2 / 12,179 m²,4,,300000,"Azərbaycan turizm institutu ,Gənclik m.,Nərimanov r.",40.41932422288878,Bakı,49.92522239685059,20 Oktyabr 2022 ,,
Yeni tikili,12 / 18,63.4 m²,3,var,108000,Yasamal r.,40.40210780478213,Bakı,49.85758781433109,17 Noyabr 2022 ,,
Yeni tikili,10 / 10,185 m²,5,var,265000,"Yasamal bazarı ,İnşaatçılar m.,Yasamal r.",40.40210780478213,Bakı,49.85758781433109,17 Noyabr 2022 ,,
Köhnə tikili,1 / 9,60 m²,2,,110000,Yasamal r.,40.38964558015979,Bakı,49.81535493390867,20 Oktyabr 2022 ,,
Köhnə tikili,5 / 9,45 m²,1,,54000,"Xalqlar Dostluğu m.,Suraxanı r.,Yeni Günəşli q.",40.39748762097258,Bakı,49.95276912689208,20 Oktyabr 2022 ,,
Köhnə tikili,1 / 9,135 m²,5,var,150000,"Həzi Aslanov m.,Xətai r.,Həzi Aslanov q.",40.39270174045908,Bakı,49.83329557619629,20 Oktyabr 2022 ,,
Köhnə tikili,3 / 4,31 m²,1,var,72000,"Neftçilər m.,Nizami r.",40.41004652257476,Bakı,49.94233428149656,20 Oktyabr 2022 ,,
Köhnə tikili,1 / 9,100 m²,3,,135000,"Nəsimi m.,Nəsimi r.",40.37620916175648,Bakı,49.81580107043555,02 Noyabr 2022 ,,
Yeni tikili,14 / 17,103 m²,3,,210000,"Yasamal r.,Yeni Yasamal q.",40.38873191798482,Bakı,49.95395421981815,20 Oktyabr 2022 ,,
Yeni tikili,14 / 19,218 m²,4,,650000,"Elmlər Akademiyası m.,Hüseyn Cavid parkı ,Yasamal r.",40.38525881895442,Bakı,49.85801696777344,20 Oktyabr 2022 ,,
Yeni tikili,10 / 11,85 m²,3,,65000,Abşeron r.,40.39061957433251,Xırdalan,49.84664440155029,06 Oktyabr 2022 ,,
Yeni tikili,5 / 16,130 m²,3,var,255000,"Botanika bağı ,Səbail r.,Badamdar q.",40.40606433283491,Bakı,49.86231650326251,04 Noyabr 2022 ,,
Köhnə tikili,8 / 9,75 m²,3,,111000,"Xətai r.,Köhnə Günəşli q.",40.39298300258589,Bakı,49.95403544813546,01 Yanvar 2023 ,,
Yeni tikili,16 / 22,120 m²,3,,230000,"İnşaatçılar m.,Yasamal r.",40.4053327515815,Bakı,49.81380344106,21 Noyabr 2022 ,,
Yeni tikili,9 / 17,96 m²,3,,122000,"Həzi Aslanov m.,Xətai r.,Köhnə Günəşli q.",40.39298300258589,Bakı,49.95403544813546,20 Oktyabr 2022 ,,
Yeni tikili,4 / 14,110 m²,3,,175000,"Yasamal r.,Yeni Yasamal q.",40.38684986511659,Bakı,49.78658322811126,20 Oktyabr 2022 ,,
Köhnə tikili,2 / 5,55 m²,2,,148000,"Yasamal r.,Yasamal q.",40.48200538004419,Bakı,50.12402772903442,20 Oktyabr 2022 ,,
Köhnə tikili,4 / 5,45 m²,1,,75000,"Yasamal bazarı ,İnşaatçılar m.,Yasamal r.,Yasamal q.",40.3839039,Bakı,49.79972640000005,20 Oktyabr 2022 ,,
Yeni tikili,9 / 17,154 m²,3,,250000,"Tibb Universiteti ,Nəsimi r.",40.39414959485713,Bakı,49.7993946075439,20 Oktyabr 2022 ,,
Yeni tikili,1 / 18,112 m²,3,var,204000,Yasamal r.,40.4053327515815,Bakı,49.81380344106,20 Oktyabr 2022 ,,
Yeni tikili,14 / 17,57 m²,2,,118000,"Qara Qarayev m.,Nizami r.",40.38873191798482,Bakı,49.95395421981815,20 Oktyabr 2022 ,,
Yeni tikili,4 / 17,148 m²,3,,165000,"Yasamal r.,Yeni Yasamal q.",40.38513372002494,Bakı,49.78728328466415,19 Noyabr 2022 ,,
Yeni tikili,11 / 12,153 m²,4,,245000,Yasamal r.,40.372048183112,Bakı,49.79540594834422,29 Oktyabr 2022 ,,
Yeni tikili,14 / 16,85 m²,2,,180000,"Şah İsmayıl Xətai m.,Xətai r.",40.38264366149726,Bakı,49.87209320068359,20 Oktyabr 2022 ,,
Yeni tikili,7 / 17,105 m²,2,var,67000,"Xətai r.,Həzi Aslanov q.",40.3807186,Bakı,49.92525120000005,20 Oktyabr 2022 ,,
Yeni tikili,16 / 18,105 m²,3,,163500,"Həzi Aslanov m.,Xətai r.",40.39816149998397,Bakı,49.84086155891422,19 Noyabr 2022 ,,
Yeni tikili,4 / 15,91 m²,3,,120000,"Xətai r.,Həzi Aslanov q.",40.37104456957248,Bakı,49.95549254560103,20 Oktyabr 2022 ,,
Yeni tikili,9 / 16,125 m²,4,,210000,"Bakı Dövlət Universiteti ,Elmlər Akademiyası m.,Yasamal r.",40.38373468484185,Bakı,49.81024682521824,13 Mart 2023 ,,
Yeni tikili,13 / 17,103 m²,3,,150000,"Xətai r.,Həzi Aslanov q.",40.39298300258589,Bakı,49.95403544813546,20 Oktyabr 2022 ,,
Yeni tikili,4 / 9,72 m²,3,,74000,Xırdalan,40.45511190000001,Xırdalan,49.74459389999993,20 Oktyabr 2022 ,,
Yeni tikili,14 / 16,95 m²,2,var,160000,"İnşaatçılar m.,Yasamal r.,Yasamal q.",40.40928899571853,Bakı,49.80875551700596,09 Yanvar 2023 ,,
Yeni tikili,6 / 17,155 m²,4,,350000,"Qara Qarayev m.,Nizami r.",40.38873191798482,Bakı,49.95395421981815,08 Oktyabr 2022 ,,
Yeni tikili,8 / 14,110 m²,3,var,157000,Nizami r.,40.40978135373791,Bakı,49.95434014516603,10 Noyabr 2022 ,,
Yeni tikili,3 / 16,132.3 m²,3,yoxdur,100000,"Nizami r.,8-ci kilometr q.",40.40723258652207,Bakı,49.95657607074607,20 Oktyabr 2022 ,,
Köhnə tikili,5 / 5,47 m²,2,,97000,"Bayıl parkı ,Səbail r.,Bayıl q.",40.35187413397249,Bakı,49.83135747025531,23 Noyabr 2022 ,,
Yeni tikili,8 / 17,65 m²,3,,110000,"Şah İsmayıl Xətai m.,Xətai r.",40.4053327515815,Bakı,49.81380344106,20 Oktyabr 2022 ,,
Yeni tikili,19 / 20,141 m²,3,,180000,"Yasamal bazarı ,İnşaatçılar m.,Yasamal r.",40.3839039,Bakı,49.79972640000005,20 Oktyabr 2022 ,,
Köhnə tikili,4 / 5,45 m²,2,,85500,Nərimanov r.,40.38816806232006,Bakı,49.83243942260742,24 Oktyabr 2022 ,,
Yeni tikili,13 / 16,50 m²,2,var,110000,"ASAN Xidmət №3 ,Yasamal bazarı ,Yasamal r.",40.37998804209546,Bakı,49.80538730697219,20 Oktyabr 2022 ,,
Köhnə tikili,9 / 9,39 m²,1,,56500,"Suraxanı r.,Yeni Günəşli q.",40.37738463838523,Bakı,49.97401222229003,20 Oktyabr 2022 ,,
Yeni tikili,2 / 16,60 m²,2,,86000,"Yasamal r.,Yeni Yasamal q.",40.39020848068951,Bakı,49.78830520629882,26 Sentyabr 2022 ,,
Yeni tikili,10 / 22,271 m²,5,yoxdur,406500,"Yasamal bazarı ,Yasamal r.,Elmlər Akademiyası m.",40.37998753828459,Bakı,49.85486268997196,23 Fevral 2023 ,,
Yeni tikili,18 / 18,146 m²,3,,141000,"Zərifə Əliyeva adına park ,Binəqədi r.,9-cu mikrorayon q.",40.40718945487256,Bakı,49.81836318969727,21 Dekabr 2022 ,,
Yeni tikili,11 / 16,138 m²,3,,235000,"Binəqədi r.,7-ci mikrorayon q.",40.39205366748811,Bakı,49.84065234661102,20 Oktyabr 2022 ,,
Köhnə tikili,4 / 6,140 m²,4,,450000,"Xalça Muzeyi ,Sahil m.,Sahil bağı ,Malokan bağı ,Səbail r.",40.39270174045908,Bakı,49.83329557619629,20 Oktyabr 2022 ,,
Yeni tikili,15 / 16,75 m²,2,var,185000,"Şah İsmayıl Xətai m.,Xətai r.",40.38264584849752,Bakı,49.87077726792899,20 Oktyabr 2022 ,var,var
Yeni tikili,14 / 15,125 m²,3,,250000,"Qara Qarayev m.,Nizami r.,8-ci kilometr q.",40.42003312059082,Bakı,49.92922605585795,19 Noyabr 2022 ,,
Yeni tikili,18 / 22,181 m²,4,,155000,Yasamal r.,40.4053327515815,Bakı,49.81380344106,21 Oktyabr 2022 ,,
Yeni tikili,5 / 7,148 m²,3,var,240000,"Şah İsmayıl Xətai m.,Xətai r.",40.38264366149726,Bakı,49.87209320068359,20 Oktyabr 2022 ,,
Yeni tikili,19 / 22,181 m²,5,,155000,"20 Yanvar m.,Yasamal r.",40.39989258617802,Bakı,49.83979431395813,20 Oktyabr 2022 ,,
Köhnə tikili,7 / 9,85 m²,3,var,130000,"Xalqlar Dostluğu m.,Nizami r.",40.40027766320492,Bakı,49.84006762504578,20 Oktyabr 2022 ,,
Yeni tikili,16 / 18,115 m²,3,var,220000,"Ayna Sultanova heykəli ,Binəqədi r.",40.37024250177031,Bakı,49.97394200996779,04 Noyabr 2022 ,var,var
Yeni tikili,4 / 17,219 m²,4,,450000,"Azərbaycan turizm institutu ,Gənclik m.,Nərimanov r.",40.40952590477563,Bakı,49.84445571899418,20 Oktyabr 2022 ,,
Köhnə tikili,3 / 9,112 m²,3,,175000,"İnşaatçılar m.,Yasamal r.",40.39414959485713,Bakı,49.7993946075439,Dünən 12:20 ,,
Yeni tikili,5 / 19,211 m²,5,,560000,"Cavanşir körpüsü ,Şah İsmayıl Xətai m.,Xətai r.",40.3863784022024,Bakı,49.84768509864811,17 Mart 2023 ,,
Yeni tikili,2 / 16,120 m²,3,,137000,"Xalqlar Dostluğu m.,Nizami r.",40.38855213843042,Bakı,49.87120270729065,20 Oktyabr 2022 ,,
Köhnə tikili,4 / 5,48 m²,2,,86000,"Gənclik m.,Respublika stadionu ,Nərimanov r.",40.39989258617802,Bakı,49.83979431395813,29 Sentyabr 2022 ,,
Yeni tikili,2 / 15,58 m²,2,,75000,Xətai r.,40.37649764183499,Bakı,49.84163403511051,20 Oktyabr 2022 ,,
Yeni tikili,15 / 15,55 m²,2,,80000,"Əhmədli m.,Xətai r.,Əhmədli q.",40.38525881895442,Bakı,49.95380401611328,20 Oktyabr 2022 ,,
Yeni tikili,8 / 11,150 m²,4,var,325000,"Nəriman Nərimanov m.,Nəriman Nərimanov parkı ,Nərimanov r.",40.40205400672914,Bakı,49.87026524025872,20 Oktyabr 2022 ,,
Yeni tikili,2 / 18,127 m²,3,,135000,"Yasamal r.,Yeni Yasamal q.",40.4053327515815,Bakı,49.81380344106,20 Oktyabr 2022 ,,
Köhnə tikili,5 / 5,50 m²,2,,86000,"Xalqlar Dostluğu m.,Nizami r.",40.40027766320492,Bakı,49.84006762504578,15 Oktyabr 2022 ,,
Yeni tikili,12 / 12,351 m²,4,,570000,"Azərbaycan turizm institutu ,Gənclik m.,Nərimanov r.",40.39909911329146,Bakı,49.86053914366985,21 Oktyabr 2022 ,,
Yeni tikili,3 / 16,112 m²,3,,225000,"Binəqədi r.,7-ci mikrorayon q.",40.38341187453192,Bakı,49.82710719108582,20 Noyabr 2022 ,,
Köhnə tikili,1 / 1,70 m²,3,var,74500,"Mərkəzi Univermaq ,Beşmərtəbə ,Nizami m.,Yasamal r.,Yasamal q.",40.39061957433251,Bakı,49.84664440155029,05 Oktyabr 2022 ,,
Yeni tikili,4 / 16,147 m²,3,,212500,"Nəriman Nərimanov m.,Nərimanov r.",40.40481309592228,Bakı,49.86986696720127,08 Oktyabr 2022 ,,
Yeni tikili,12 / 18,280 m²,5,var,350000,"Elmlər Akademiyası m.,Yasamal r.",40.39061957433251,Bakı,49.84664440155029,20 Oktyabr 2022 ,,
Köhnə tikili,1 / 1,35 m²,2,,70000,"Tibb Universiteti ,Nəsimi r.",40.39232579999999,Bakı,49.82880550000004,20 Noyabr 2022 ,,
Yeni tikili,11 / 15,100 m²,4,var,200000,"Azadlıq Prospekti m.,Binəqədi r.,8-ci mikrorayon q.",40.40554735588255,Bakı,49.87506508827209,20 Oktyabr 2022 ,,
Yeni tikili,11 / 16,120 m²,3,var,176000,"İnşaatçılar m.,Yasamal r.",40.39989258617802,Bakı,49.83979431395813,01 Noyabr 2022 ,,
Yeni tikili,14 / 16,103 m²,3,,155000,"Xətai r.,Həzi Aslanov q.",40.39045008382347,Bakı,49.830508675731,20 Oktyabr 2022 ,,
Yeni tikili,11 / 14,65 m²,3,yoxdur,114000,"Tibb Universiteti ,Nəsimi r.",40.36942330420567,Bakı,49.82101321220402,01 Oktyabr 2022 ,,
Köhnə tikili,4 / 5,80 m²,3,var,130000,"Nəriman Nərimanov m.,Nərimanov r.",40.39816149998397,Bakı,49.84086155891422,15 Oktyabr 2022 ,,
Yeni tikili,9 / 20,64 m²,2,var,240000,Xətai r.,40.37849802028471,Bakı,49.87448841333393,20 Oktyabr 2022 ,var,var
Yeni tikili,4 / 11,85 m²,3,var,119000,"Yasamal r.,Yeni Yasamal q.",40.38816806232006,Bakı,49.83243942260742,22 Noyabr 2022 ,,
Yeni tikili,9 / 14,72 m²,2,,190000,"Bakı Slavyan Universiteti ,Azərbaycan Dillər Universiteti ,Dostluq kinoteatrı ,Nəsimi r.",40.38597796945577,Bakı,49.84458446502686,20 Oktyabr 2022 ,,
Yeni tikili,13 / 22,94 m²,3,var,140000,"Yasamal r.,Yeni Yasamal q.",40.38816806232006,Bakı,49.83243942260742,20 Noyabr 2022 ,,
Yeni tikili,10 / 16,85 m²,2,,175000,"Qış parkı ,Sirk ,Nəsimi r.",40.38341187453192,Bakı,49.82710719108582,11 Noyabr 2022 ,,
Yeni tikili,10 / 17,134 m²,3,,259000,"Azərbaycan turizm institutu ,Nəriman Nərimanov m.,Nərimanov r.",40.40554735588255,Bakı,49.87506508827209,20 Oktyabr 2022 ,,
Yeni tikili,15 / 16,132 m²,3,var,270000,"Şah İsmayıl Xətai m.,ASAN Xidmət №2 ,Xətai r.",40.4053327515815,Bakı,49.81380344106,20 Oktyabr 2022 ,,
Yeni tikili,14 / 14,92 m²,3,,137000,"Sabunçu r.,Bakıxanov q.",40.41783079160347,Bakı,49.96248501586912,20 Oktyabr 2022 ,,
Yeni tikili,12 / 17,180 m²,3,,260000,"Nəsimi bazarı ,Nəsimi r.",40.39589998018401,Bakı,49.84141390392355,20 Oktyabr 2022 ,,
Yeni tikili,4 / 16,86 m²,2,,194000,"TQDK ,Gənclik m.,Nəsimi r.",40.38264366149726,Bakı,49.87209320068359,20 Oktyabr 2022 ,,
Yeni tikili,10 / 19,95 m²,3,,168000,"Tibb Universiteti ,Nəsimi r.",40.39989258617802,Bakı,49.83979431395813,20 Oktyabr 2022 ,,
Yeni tikili,10 / 10,193 m²,5,var,270000,"Yasamal r.,Yasamal q.",40.38816806232006,Bakı,49.83243942260742,14 Yanvar 2023 ,,
Yeni tikili,6 / 15,100 m²,2,var,160000,"Azadlıq Prospekti m.,Binəqədi r.,8-ci mikrorayon q.",40.40554735588255,Bakı,49.87506508827209,20 Oktyabr 2022 ,,
Yeni tikili,12 / 18,212 m²,4,,500000,"Elmlər Akademiyası m.,Yasamal r.",40.40554735588255,Bakı,49.87506508827209,20 Oktyabr 2022 ,,
Yeni tikili,15 / 17,54 m²,2,,125000,Nərimanov r.,40.38264366149726,Bakı,49.87209320068359,20 Oktyabr 2022 ,,
Yeni tikili,14 / 17,122 m²,3,yoxdur,204000,"Yasamal bazarı ,İnşaatçılar m.,Yasamal r.",40.39989258617802,Bakı,49.83979431395813,02 Noyabr 2022 ,,
Yeni tikili,3 / 15,158 m²,3,,425000,"Nərimanov heykəli ,Sovetski ,Space TV ,Texniki Universiteti ,Yasamal r.",40.37849802028471,Bakı,49.87448841333393,20 Oktyabr 2022 ,,
Yeni tikili,4 / 12,105 m²,3,var,196000,"Şah İsmayıl Xətai m.,Xətai r.",40.38256166615326,Bakı,49.87286586242682,20 Oktyabr 2022 ,,
Yeni tikili,12 / 14,63 m²,2,var,122000,Xətai r.,40.39298300258589,Bakı,49.95403544813546,27 Oktyabr 2022 ,,
Yeni tikili,7 / 9,140 m²,4,var,148000,"Həzi Aslanov m.,Xətai r.,Həzi Aslanov q.",40.37173283730151,Bakı,49.95395583260714,11 Noyabr 2022 ,,
Yeni tikili,10 / 18,188.8 m²,4,,350000,"Sirk ,Azərbaycan Dillər Universiteti ,Zabitlər parkı ,Bakı Slavyan Universiteti ,Qış parkı ,Nəsimi r.",40.38341187453192,Bakı,49.82710719108582,13 Dekabr 2022 ,,
Köhnə tikili,4 / 9,90 m²,3,var,99000,"Əhmədli m.,Xətai r.,Əhmədli q.",40.3816452,Bakı,49.95845050000003,20 Oktyabr 2022 ,,
Köhnə tikili,5 / 9,40 m²,2,,60000,Nərimanov r.,40.38264366149726,Bakı,49.87209320068359,06 Oktyabr 2022 ,,
Yeni tikili,11 / 22,125 m²,3,,168000,"20 Yanvar m.,Yasamal r.",40.39989258617802,Bakı,49.83979431395813,21 Oktyabr 2022 ,,
Köhnə tikili,4 / 9,115 m²,4,var,125000,Xətai r.,40.36942330420567,Bakı,49.82101321220402,17 Fevral 2023 ,var,var
Köhnə tikili,5 / 9,120 m²,5,var,130000,"Həzi Aslanov m.,Xətai r.,Əhmədli q.",40.39206183887164,Bakı,49.95752692222599,27 Oktyabr 2022 ,,
Yeni tikili,14 / 17,500 m²,9,,950000,"Təhsil Nazirliyi ,Nərimanov r.",40.38264366149726,Bakı,49.87209320068359,19 Noyabr 2022 ,,
Yeni tikili,7 / 17,58 m²,2,,120000,"Şərq bazarı ,Nərimanov r.",40.38321447491986,Bakı,49.87406198881672,19 Noyabr 2022 ,,
Yeni tikili,14 / 15,160 m²,4,var,192000,"Zərifə Əliyeva adına park ,Nəsimi m.,Binəqədi r.",40.39816149998397,Bakı,49.84086155891422,20 Oktyabr 2022 ,,
Yeni tikili,5 / 18,125 m²,3,var,175000,"Nəsimi m.,Binəqədi r.",40.39816149998397,Bakı,49.84086155891422,23 Dekabr 2022 ,var,var
Yeni tikili,10 / 17,190 m²,4,,450000,"Binəqədi r.,8-ci mikrorayon q.",40.41701995793407,Bakı,49.84078795718711,20 Oktyabr 2022 ,,
Yeni tikili,7 / 19,100 m²,3,var,248000,"Tibb Universiteti ,Park Zorge ,Nəsimi r.",40.39816149998397,Bakı,49.84086155891422,25 Dekabr 2022 ,var,var
Yeni tikili,9 / 16,200 m²,4,var,390000,"Park Zorge ,Rusiya səfirliyi ,Sevil Qazıyeva parkı ,Nəsimi r.",40.37520939853896,Bakı,49.84099855135474,20 Oktyabr 2022 ,,
Köhnə tikili,3 / 9,66 m²,3,var,125000,"Şah İsmayıl Xətai m.,Xətai r.",40.36942330420567,Bakı,49.82101321220402,20 Oktyabr 2022 ,,
Yeni tikili,9 / 16,101 m²,2,yoxdur,127000,"Yasamal r.,Yasamal q.",40.40952590477563,Bakı,49.84445571899418,14 Dekabr 2022 ,,
Köhnə tikili,5 / 5,75 m²,3,,190000,"Yasamal bazarı ,Yasamal r.,Elmlər Akademiyası m.",40.37702072916624,Bakı,49.84645128250122,20 Oktyabr 2022 ,,
Yeni tikili,11 / 12,156 m²,4,,245000,"Ağ şəhər ,Xətai r.,Ağ şəhər q.",40.40328327684168,Bakı,49.85078707337379,07 Dekabr 2022 ,,
Yeni tikili,6 / 15,29 m²,1,,41500,Xırdalan,40.45436083288656,Xırdalan,49.73223428085929,20 Oktyabr 2022 ,,
Yeni tikili,3 / 18,96 m²,3,var,152000,"Yasamal r.,Yeni Yasamal q.",40.394,Bakı,49.795,20 Oktyabr 2022 ,var,var
Yeni tikili,3 / 20,231 m²,4,,460000,Yasamal r.,40.38318304603349,Bakı,49.80984449386597,20 Oktyabr 2022 ,,
Yeni tikili,13 / 13,225 m²,6,,420000,"Neftçilər m.,Nizami r.,8-ci kilometr q.",40.4107382,Bakı,49.9384708,20 Oktyabr 2022 ,,
Yeni tikili,14 / 17,115 m²,3,var,176000,"Yasamal r.,Yeni Yasamal q.",40.38816806232006,Bakı,49.83243942260742,14 Fevral 2023 ,var,var
Yeni tikili,4 / 4,62 m²,3,,75000,"Həzi Aslanov m.,Xətai r.,Köhnə Günəşli q.",40.37498014550738,Bakı,49.96156733211134,20 Oktyabr 2022 ,,
Yeni tikili,6 / 12,115 m²,3,,186000,"8 Noyabr m.,Nəsimi r.",40.38321447491986,Bakı,49.87406198881672,20 Oktyabr 2022 ,,
Yeni tikili,5 / 14,65 m²,2,,163000,"Səməd Vurğun parkı ,28 May m.,Nəsimi r.",40.38855213843042,Bakı,49.87120270729065,20 Oktyabr 2022 ,,
Yeni tikili,9 / 15,108 m²,2,,184000,"Şərq bazarı ,Nərimanov r.",40.37104456957248,Bakı,49.95549254560103,19 Noyabr 2022 ,,
Yeni tikili,9 / 16,147 m²,3,var,229900,"Zərifə Əliyeva adına park ,Nəsimi m.,Nəsimi r.,4-cü mikrorayon q.",40.36942330420567,Bakı,49.82101321220402,20 Oktyabr 2022 ,,
Yeni tikili,8 / 16,56.9 m²,2,,96000,"Yasamal r.,Yeni Yasamal q.",40.394,Bakı,49.795,20 Oktyabr 2022 ,,
Yeni tikili,17 / 18,150 m²,3,yoxdur,229900,"Nəsimi m.,Zərifə Əliyeva adına park ,Binəqədi r.,9-cu mikrorayon q.",40.39989258617802,Bakı,49.83979431395813,25 Yanvar 2023 ,,
Yeni tikili,8 / 16,165 m²,3,,330000,"Təhsil Nazirliyi ,Nərimanov r.",40.38321447491986,Bakı,49.87406198881672,20 Oktyabr 2022 ,,
Köhnə tikili,5 / 9,70 m²,3,,112000,"Sabunçu r.,Bakıxanov q.",40.38873191798482,Bakı,49.95395421981815,20 Oktyabr 2022 ,,
Köhnə tikili,2 / 5,43 m²,1,,71000,"Zoopark ,Dostluq kinoteatrı ,Koala parkı ,Nərimanov r.",40.37649764183499,Bakı,49.84163403511051,05 Oktyabr 2022 ,,
Yeni tikili,14 / 15,84 m²,2,var,134000,"Azadlıq Prospekti m.,Binəqədi r.,8-ci mikrorayon q.",40.40554735588255,Bakı,49.87506508827209,20 Oktyabr 2022 ,,
Yeni tikili,11 / 17,124 m²,4,,190000,"Həzi Aslanov m.,Ukrayna dairəsi ,Xətai r.",40.37104456957248,Bakı,49.95549254560103,20 Oktyabr 2022 ,,
